{
"type": "FeatureCollection",
"name": "ptv_metro_tram_stop",
"crs": { "type": "name", "properties": { "name": "urn:ogc:def:crs:OGC:1.3:CRS84" } },
"features": [
{ "type": "Feature", "properties": { "gid": 1, "stop_id": "18730", "NAME": "134-Merribell Ave/Nicholson St (Coburg)", "latitude": -37.744359, "longitude": 144.977728, "ticketzone": "1", "routeussp": "1" }, "geometry": { "type": "Point", "coordinates": [ 144.97773390134671, -37.744345867916749 ] } },
{ "type": "Feature", "properties": { "gid": 2, "stop_id": "18732", "NAME": "44-Deepdene Park/Whitehorse Rd (Balwyn)", "latitude": -37.811375, "longitude": 145.068671, "ticketzone": "1", "routeussp": "109" }, "geometry": { "type": "Point", "coordinates": [ 145.068677078605447, -37.811361854438843 ] } },
{ "type": "Feature", "properties": { "gid": 3, "stop_id": "18733", "NAME": "45-Hardwicke St/Whitehorse Rd (Balwyn)", "latitude": -37.81175, "longitude": 145.071785, "ticketzone": "1", "routeussp": "109" }, "geometry": { "type": "Point", "coordinates": [ 145.071791077697981, -37.811736884569576 ] } },
{ "type": "Feature", "properties": { "gid": 4, "stop_id": "18734", "NAME": "46-Balwyn Cinema/Whitehorse Rd (Balwyn)", "latitude": -37.812242, "longitude": 145.07593, "ticketzone": "1", "routeussp": "109" }, "geometry": { "type": "Point", "coordinates": [ 145.075935757606516, -37.812228824906555 ] } },
{ "type": "Feature", "properties": { "gid": 5, "stop_id": "18735", "NAME": "47-Balwyn Rd/Whitehorse Rd (Balwyn)", "latitude": -37.812919, "longitude": 145.081524, "ticketzone": "1,2", "routeussp": "109" }, "geometry": { "type": "Point", "coordinates": [ 145.08152979620553, -37.812905805413642 ] } },
{ "type": "Feature", "properties": { "gid": 6, "stop_id": "18736", "NAME": "48-Balwyn Shopping Centre/Whitehorse Rd (Balwyn)", "latitude": -37.813199, "longitude": 145.083788, "ticketzone": "1,2", "routeussp": "109" }, "geometry": { "type": "Point", "coordinates": [ 145.083793835952548, -37.813185885576438 ] } },
{ "type": "Feature", "properties": { "gid": 7, "stop_id": "18737", "NAME": "49-Northcote Ave/Whitehorse Rd (Balwyn)", "latitude": -37.81369, "longitude": 145.087956, "ticketzone": "1,2", "routeussp": "109" }, "geometry": { "type": "Point", "coordinates": [ 145.087961915414041, -37.813676836281402 ] } },
{ "type": "Feature", "properties": { "gid": 8, "stop_id": "18738", "NAME": "51-Narrak Rd/Whitehorse Rd (Mont Albert)", "latitude": -37.814564, "longitude": 145.09517, "ticketzone": "1,2", "routeussp": "109" }, "geometry": { "type": "Point", "coordinates": [ 145.095175954004333, -37.814550826488137 ] } },
{ "type": "Feature", "properties": { "gid": 9, "stop_id": "18781", "NAME": "134-Orrong Rd/Toorak Rd (Toorak)", "latitude": -37.841755, "longitude": 145.014048, "ticketzone": "1", "routeussp": "58" }, "geometry": { "type": "Point", "coordinates": [ 145.014053924768092, -37.841741800982383 ] } },
{ "type": "Feature", "properties": { "gid": 10, "stop_id": "18782", "NAME": "135-Woorigoleen Rd/Toorak Rd (Toorak)", "latitude": -37.842166, "longitude": 145.017583, "ticketzone": "1", "routeussp": "58" }, "geometry": { "type": "Point", "coordinates": [ 145.017588763848778, -37.842152831552866 ] } },
{ "type": "Feature", "properties": { "gid": 11, "stop_id": "18783", "NAME": "136-Irving Rd/Toorak Rd (Toorak)", "latitude": -37.842461, "longitude": 145.020086, "ticketzone": "1", "routeussp": "58" }, "geometry": { "type": "Point", "coordinates": [ 145.020091843755068, -37.842447851084572 ] } },
{ "type": "Feature", "properties": { "gid": 12, "stop_id": "18784", "NAME": "137-Kooyong Rd/Toorak Rd (Toorak)", "latitude": -37.842844, "longitude": 145.023065, "ticketzone": "1", "routeussp": "58" }, "geometry": { "type": "Point", "coordinates": [ 145.023070842609769, -37.842830801778902 ] } },
{ "type": "Feature", "properties": { "gid": 13, "stop_id": "18785", "NAME": "138-Moonga Rd/Toorak Rd (Toorak)", "latitude": -37.843231, "longitude": 145.026248, "ticketzone": "1", "routeussp": "58" }, "geometry": { "type": "Point", "coordinates": [ 145.026253962743425, -37.84321780202059 ] } },
{ "type": "Feature", "properties": { "gid": 14, "stop_id": "18786", "NAME": "139-Glenbervie Rd/Toorak Rd (Toorak)", "latitude": -37.843615, "longitude": 145.029817, "ticketzone": "1", "routeussp": "58" }, "geometry": { "type": "Point", "coordinates": [ 145.029823001759411, -37.843601832178074 ] } },
{ "type": "Feature", "properties": { "gid": 15, "stop_id": "18789", "NAME": "112-Lygon St/Elgin St (Carlton)", "latitude": -37.797113, "longitude": 144.967159, "ticketzone": "1", "routeussp": "6,1" }, "geometry": { "type": "Point", "coordinates": [ 144.967165017320497, -37.797099817312905 ] } },
{ "type": "Feature", "properties": { "gid": 16, "stop_id": "18790", "NAME": "113-Lytton St/Lygon St (Carlton)", "latitude": -37.794127, "longitude": 144.968025, "ticketzone": "1", "routeussp": "6,1" }, "geometry": { "type": "Point", "coordinates": [ 144.968030817767897, -37.79411379803382 ] } },
{ "type": "Feature", "properties": { "gid": 17, "stop_id": "18791", "NAME": "114-Princes St/Lygon St (Carlton North)", "latitude": -37.792689, "longitude": 144.968269, "ticketzone": "1", "routeussp": "6,1" }, "geometry": { "type": "Point", "coordinates": [ 144.968274898322221, -37.792675867390905 ] } },
{ "type": "Feature", "properties": { "gid": 18, "stop_id": "18792", "NAME": "115-Melbourne Cemetery/Lygon St (Carlton North)", "latitude": -37.78958, "longitude": 144.968797, "ticketzone": "1", "routeussp": "6,1" }, "geometry": { "type": "Point", "coordinates": [ 144.968803018841783, -37.789566817578809 ] } },
{ "type": "Feature", "properties": { "gid": 19, "stop_id": "18793", "NAME": "116-Fenwick St/Lygon St (Carlton North)", "latitude": -37.78737, "longitude": 144.969186, "ticketzone": "1", "routeussp": "6,1" }, "geometry": { "type": "Point", "coordinates": [ 144.969191818020704, -37.787356867942101 ] } },
{ "type": "Feature", "properties": { "gid": 20, "stop_id": "18794", "NAME": "117-Richardson St/Lygon St (Carlton North)", "latitude": -37.784036, "longitude": 144.969732, "ticketzone": "1", "routeussp": "6,1" }, "geometry": { "type": "Point", "coordinates": [ 144.96973793885104, -37.784022817497863 ] } },
{ "type": "Feature", "properties": { "gid": 21, "stop_id": "18795", "NAME": "118-Pigdon St/Lygon St (Carlton North)", "latitude": -37.781924, "longitude": 144.970074, "ticketzone": "1", "routeussp": "6,1" }, "geometry": { "type": "Point", "coordinates": [ 144.970079939428729, -37.781910877843266 ] } },
{ "type": "Feature", "properties": { "gid": 22, "stop_id": "18899", "NAME": "26-Alfred Hospital/Commercial Rd (South Yarra)", "latitude": -37.845278, "longitude": 144.982225, "ticketzone": "1", "routeussp": "72" }, "geometry": { "type": "Point", "coordinates": [ 144.982231010058996, -37.845264849351786 ] } },
{ "type": "Feature", "properties": { "gid": 23, "stop_id": "18918", "NAME": "27-Punt Rd/Commercial Rd (South Yarra)", "latitude": -37.84563, "longitude": 144.984863, "ticketzone": "1", "routeussp": "72" }, "geometry": { "type": "Point", "coordinates": [ 144.984869089103654, -37.845616839316151 ] } },
{ "type": "Feature", "properties": { "gid": 24, "stop_id": "18923", "NAME": "28-Braille Library/Commercial Rd (South Yarra)", "latitude": -37.845899, "longitude": 144.987413, "ticketzone": "1", "routeussp": "72" }, "geometry": { "type": "Point", "coordinates": [ 144.987418968642174, -37.84588584914065 ] } },
{ "type": "Feature", "properties": { "gid": 25, "stop_id": "18931", "NAME": "29-Porter St/Commercial Rd (South Yarra)", "latitude": -37.846314, "longitude": 144.990583, "ticketzone": "1", "routeussp": "72" }, "geometry": { "type": "Point", "coordinates": [ 144.990588768240883, -37.846300839108849 ] } },
{ "type": "Feature", "properties": { "gid": 26, "stop_id": "18933", "NAME": "30-Prahran Market/Commercial Rd (South Yarra)", "latitude": -37.846541, "longitude": 144.992271, "ticketzone": "1", "routeussp": "72" }, "geometry": { "type": "Point", "coordinates": [ 144.992276807779689, -37.846527819438201 ] } },
{ "type": "Feature", "properties": { "gid": 27, "stop_id": "18934", "NAME": "31-Chapel St/Commercial Rd (South Yarra)", "latitude": -37.84676, "longitude": 144.994015, "ticketzone": "1", "routeussp": "72" }, "geometry": { "type": "Point", "coordinates": [ 144.994021007812307, -37.846746879824487 ] } },
{ "type": "Feature", "properties": { "gid": 28, "stop_id": "18935", "NAME": "32-Surrey Rd/Malvern Rd (South Yarra)", "latitude": -37.847293, "longitude": 144.997807, "ticketzone": "1", "routeussp": "72" }, "geometry": { "type": "Point", "coordinates": [ 144.997812887485992, -37.847279859807067 ] } },
{ "type": "Feature", "properties": { "gid": 29, "stop_id": "18936", "NAME": "33-Francis St/Malvern Rd (South Yarra)", "latitude": -37.847653, "longitude": 145.000434, "ticketzone": "1", "routeussp": "72" }, "geometry": { "type": "Point", "coordinates": [ 145.000439806361015, -37.847639860193929 ] } },
{ "type": "Feature", "properties": { "gid": 30, "stop_id": "18937", "NAME": "34-Williams Rd/Malvern Rd (South Yarra)", "latitude": -37.848004, "longitude": 145.00305, "ticketzone": "1", "routeussp": "72" }, "geometry": { "type": "Point", "coordinates": [ 145.003055926116929, -37.847990860081474 ] } },
{ "type": "Feature", "properties": { "gid": 31, "stop_id": "18938", "NAME": "35-Mathoura Rd/Malvern Rd (Toorak)", "latitude": -37.84848, "longitude": 145.006685, "ticketzone": "1", "routeussp": "72" }, "geometry": { "type": "Point", "coordinates": [ 145.006690845472463, -37.848466870202159 ] } },
{ "type": "Feature", "properties": { "gid": 32, "stop_id": "18939", "NAME": "36-A'Beckett St/Malvern Rd (Toorak)", "latitude": -37.848923, "longitude": 145.009992, "ticketzone": "1", "routeussp": "72" }, "geometry": { "type": "Point", "coordinates": [ 145.009997804180045, -37.848909850495296 ] } },
{ "type": "Feature", "properties": { "gid": 33, "stop_id": "18940", "NAME": "37-Orrong Rd/Malvern Rd (Toorak)", "latitude": -37.849193, "longitude": 145.012076, "ticketzone": "1", "routeussp": "72" }, "geometry": { "type": "Point", "coordinates": [ 145.012081844518548, -37.849179850732924 ] } },
{ "type": "Feature", "properties": { "gid": 34, "stop_id": "18941", "NAME": "38-Clendon Rd/Malvern Rd (Toorak)", "latitude": -37.849618, "longitude": 145.01536, "ticketzone": "1", "routeussp": "72" }, "geometry": { "type": "Point", "coordinates": [ 145.015365763360109, -37.84960483132182 ] } },
{ "type": "Feature", "properties": { "gid": 35, "stop_id": "18942", "NAME": "39-Irving Rd/Malvern Rd (Toorak)", "latitude": -37.850052, "longitude": 145.018679, "ticketzone": "1", "routeussp": "72" }, "geometry": { "type": "Point", "coordinates": [ 145.01868496281466, -37.850038811128222 ] } },
{ "type": "Feature", "properties": { "gid": 36, "stop_id": "18943", "NAME": "40-Kooyong Rd/Malvern Rd (Toorak)", "latitude": -37.850403, "longitude": 145.021306, "ticketzone": "1", "routeussp": "72" }, "geometry": { "type": "Point", "coordinates": [ 145.021311882725399, -37.85038981122392 ] } },
{ "type": "Feature", "properties": { "gid": 37, "stop_id": "18944", "NAME": "41-Albany Rd/Malvern Rd (Toorak)", "latitude": -37.850763, "longitude": 145.023956, "ticketzone": "1", "routeussp": "72" }, "geometry": { "type": "Point", "coordinates": [ 145.023961841881004, -37.850749811358995 ] } },
{ "type": "Feature", "properties": { "gid": 38, "stop_id": "18945", "NAME": "42-Lauriston Girls School/Malvern Rd (Toorak)", "latitude": -37.851052, "longitude": 145.026141, "ticketzone": "1", "routeussp": "72" }, "geometry": { "type": "Point", "coordinates": [ 145.026147041625876, -37.851038802080367 ] } },
{ "type": "Feature", "properties": { "gid": 39, "stop_id": "18946", "NAME": "43-Glenferrie Rd/Malvern Rd (Toorak)", "latitude": -37.851547, "longitude": 145.029867, "ticketzone": "1", "routeussp": "72" }, "geometry": { "type": "Point", "coordinates": [ 145.029873040505777, -37.851533802647204 ] } },
{ "type": "Feature", "properties": { "gid": 40, "stop_id": "18947", "NAME": "44-Plant St/Malvern Rd (Malvern)", "latitude": -37.851897, "longitude": 145.032495, "ticketzone": "1", "routeussp": "72" }, "geometry": { "type": "Point", "coordinates": [ 145.032501040201652, -37.85188381233624 ] } },
{ "type": "Feature", "properties": { "gid": 41, "stop_id": "18948", "NAME": "45-Elizabeth St/Malvern Rd (Malvern)", "latitude": -37.852259, "longitude": 145.035304, "ticketzone": "1", "routeussp": "72" }, "geometry": { "type": "Point", "coordinates": [ 145.035309760214687, -37.852245882914886 ] } },
{ "type": "Feature", "properties": { "gid": 42, "stop_id": "18949", "NAME": "46-Meredith St/Malvern Rd (Malvern)", "latitude": -37.852784, "longitude": 145.039234, "ticketzone": "1", "routeussp": "72" }, "geometry": { "type": "Point", "coordinates": [ 145.039239879182816, -37.8527708524689 ] } },
{ "type": "Feature", "properties": { "gid": 43, "stop_id": "18950", "NAME": "47-Tooronga Rd/Malvern Rd (Malvern)", "latitude": -37.853128, "longitude": 145.041987, "ticketzone": "1", "routeussp": "72" }, "geometry": { "type": "Point", "coordinates": [ 145.041992798923417, -37.853114833499681 ] } },
{ "type": "Feature", "properties": { "gid": 44, "stop_id": "18951", "NAME": "48-Edgar St/Malvern Rd (Malvern)", "latitude": -37.853556, "longitude": 145.045555, "ticketzone": "1", "routeussp": "72" }, "geometry": { "type": "Point", "coordinates": [ 145.045560758264088, -37.85354287296154 ] } },
{ "type": "Feature", "properties": { "gid": 45, "stop_id": "18952", "NAME": "49-Kenilworth Gr/Malvern Rd (Malvern)", "latitude": -37.8539, "longitude": 145.04832, "ticketzone": "1", "routeussp": "72" }, "geometry": { "type": "Point", "coordinates": [ 145.0483259176155, -37.853886853609076 ] } },
{ "type": "Feature", "properties": { "gid": 46, "stop_id": "18953", "NAME": "50-Burke Rd/Malvern Rd (Malvern)", "latitude": -37.854322, "longitude": 145.051491, "ticketzone": "1", "routeussp": "72" }, "geometry": { "type": "Point", "coordinates": [ 145.051496796657432, -37.854308863422766 ] } },
{ "type": "Feature", "properties": { "gid": 47, "stop_id": "18954", "NAME": "51-Gardiner Railway Station/Burke Rd (Hawthorn East)", "latitude": -37.852854, "longitude": 145.052677, "ticketzone": "1", "routeussp": "72" }, "geometry": { "type": "Point", "coordinates": [ 145.052682996634218, -37.852840874121341 ] } },
{ "type": "Feature", "properties": { "gid": 48, "stop_id": "18955", "NAME": "52-Harris Ave/Burke Rd (Hawthorn East)", "latitude": -37.849778, "longitude": 145.053042, "ticketzone": "1", "routeussp": "72" }, "geometry": { "type": "Point", "coordinates": [ 145.053048037466283, -37.849764853496637 ] } },
{ "type": "Feature", "properties": { "gid": 49, "stop_id": "18956", "NAME": "53-Faircroft Ave/Burke Rd (Hawthorn East)", "latitude": -37.848171, "longitude": 145.053392, "ticketzone": "1", "routeussp": "72" }, "geometry": { "type": "Point", "coordinates": [ 145.053397956720715, -37.848157814029484 ] } },
{ "type": "Feature", "properties": { "gid": 50, "stop_id": "18957", "NAME": "54-Toorak Rd/Burke Rd (Glen Iris)", "latitude": -37.8458, "longitude": 145.053874, "ticketzone": "1", "routeussp": "72" }, "geometry": { "type": "Point", "coordinates": [ 145.053879997598017, -37.845786853811859 ] } },
{ "type": "Feature", "properties": { "gid": 51, "stop_id": "18958", "NAME": "55-Middle Rd/Burke Rd (Hawthorn East)", "latitude": -37.843796, "longitude": 145.054245, "ticketzone": "1", "routeussp": "72" }, "geometry": { "type": "Point", "coordinates": [ 145.054250797706118, -37.843782823995291 ] } },
{ "type": "Feature", "properties": { "gid": 52, "stop_id": "18959", "NAME": "56-Anderson Rd/Burke Rd (Hawthorn East)", "latitude": -37.841856, "longitude": 145.054626, "ticketzone": "1", "routeussp": "72" }, "geometry": { "type": "Point", "coordinates": [ 145.054632037272938, -37.841842874254837 ] } },
{ "type": "Feature", "properties": { "gid": 53, "stop_id": "18960", "NAME": "57-Pine Ave/Burke Rd (Hawthorn East)", "latitude": -37.840257, "longitude": 145.054941, "ticketzone": "1", "routeussp": "72" }, "geometry": { "type": "Point", "coordinates": [ 145.054947037977826, -37.840243844220716 ] } },
{ "type": "Feature", "properties": { "gid": 54, "stop_id": "18961", "NAME": "58-Leura Gr/Burke Rd (Hawthorn East)", "latitude": -37.838164, "longitude": 145.055336, "ticketzone": "1", "routeussp": "72" }, "geometry": { "type": "Point", "coordinates": [ 145.055341958095255, -37.838150803924421 ] } },
{ "type": "Feature", "properties": { "gid": 55, "stop_id": "18962", "NAME": "59-Pleasant Rd/Burke Rd (Hawthorn East)", "latitude": -37.835415, "longitude": 145.055829, "ticketzone": "1", "routeussp": "72" }, "geometry": { "type": "Point", "coordinates": [ 145.055834798289169, -37.835401843753381 ] } },
{ "type": "Feature", "properties": { "gid": 56, "stop_id": "18963", "NAME": "60-Campbell Rd/Burke Rd (Hawthorn East)", "latitude": -37.833717, "longitude": 145.056158, "ticketzone": "1", "routeussp": "72" }, "geometry": { "type": "Point", "coordinates": [ 145.056163838114088, -37.833703814261156 ] } },
{ "type": "Feature", "properties": { "gid": 57, "stop_id": "18964", "NAME": "61-Riversdale Rd/Burke Rd (Hawthorn East)", "latitude": -37.83157, "longitude": 145.056566, "ticketzone": "1", "routeussp": "72" }, "geometry": { "type": "Point", "coordinates": [ 145.056572078476393, -37.831556863755814 ] } },
{ "type": "Feature", "properties": { "gid": 58, "stop_id": "18965", "NAME": "62-Camberwell Shopping Centre/755 Burke Rd (Hawthorn East)", "latitude": -37.830204, "longitude": 145.056818, "ticketzone": "1", "routeussp": "72" }, "geometry": { "type": "Point", "coordinates": [ 145.056824078918595, -37.830190844230032 ] } },
{ "type": "Feature", "properties": { "gid": 59, "stop_id": "18966", "NAME": "63-Prospect Hill Rd/Burke Rd (Hawthorn East)", "latitude": -37.828219, "longitude": 145.057222, "ticketzone": "1", "routeussp": "72" }, "geometry": { "type": "Point", "coordinates": [ 145.057227999059336, -37.828205804381007 ] } },
{ "type": "Feature", "properties": { "gid": 60, "stop_id": "18967", "NAME": "64-Camberwell Station/Burke Rd (Hawthorn East)", "latitude": -37.826054, "longitude": 145.057631, "ticketzone": "1", "routeussp": "72" }, "geometry": { "type": "Point", "coordinates": [ 145.057636958573539, -37.826040853726433 ] } },
{ "type": "Feature", "properties": { "gid": 61, "stop_id": "18968", "NAME": "65-Victoria Rd/Burke Rd (Hawthorn East)", "latitude": -37.823583, "longitude": 145.05806, "ticketzone": "1", "routeussp": "72" }, "geometry": { "type": "Point", "coordinates": [ 145.058066078919012, -37.823569813655403 ] } },
{ "type": "Feature", "properties": { "gid": 62, "stop_id": "18969", "NAME": "66-Rathmines Rd/Burke Rd (Hawthorn East)", "latitude": -37.821481, "longitude": 145.058467, "ticketzone": "1", "routeussp": "72" }, "geometry": { "type": "Point", "coordinates": [ 145.058472878858367, -37.821467863994613 ] } },
{ "type": "Feature", "properties": { "gid": 63, "stop_id": "18970", "NAME": "67-Camberwell Girls Grammar/Burke Rd (Hawthorn East)", "latitude": -37.818589, "longitude": 145.059054, "ticketzone": "1", "routeussp": "72" }, "geometry": { "type": "Point", "coordinates": [ 145.059060039490959, -37.818575804445814 ] } },
{ "type": "Feature", "properties": { "gid": 64, "stop_id": "18971", "NAME": "68-Mont Albert Rd/Burke Rd (Kew)", "latitude": -37.815992, "longitude": 145.059542, "ticketzone": "1", "routeussp": "72" }, "geometry": { "type": "Point", "coordinates": [ 145.059547839118068, -37.81597885397418 ] } },
{ "type": "Feature", "properties": { "gid": 65, "stop_id": "18972", "NAME": "69-Sackville St/Burke Rd (Kew)", "latitude": -37.814132, "longitude": 145.059875, "ticketzone": "1", "routeussp": "72" }, "geometry": { "type": "Point", "coordinates": [ 145.059880840272513, -37.814118823889167 ] } },
{ "type": "Feature", "properties": { "gid": 66, "stop_id": "18973", "NAME": "36-St Kilda Primary School/Brighton Rd (Balaclava)", "latitude": -37.870059, "longitude": 144.988415, "ticketzone": "1", "routeussp": "67" }, "geometry": { "type": "Point", "coordinates": [ 144.988420845770975, -37.870045809067484 ] } },
{ "type": "Feature", "properties": { "gid": 67, "stop_id": "18974", "NAME": "37-Chapel St/Brighton Rd (Balaclava)", "latitude": -37.871771, "longitude": 144.989494, "ticketzone": "1", "routeussp": "67" }, "geometry": { "type": "Point", "coordinates": [ 144.989499765461574, -37.87175787942931 ] } },
{ "type": "Feature", "properties": { "gid": 68, "stop_id": "18975", "NAME": "38-Brunning St/Brighton Rd (Balaclava)", "latitude": -37.8728, "longitude": 144.990125, "ticketzone": "1", "routeussp": "67" }, "geometry": { "type": "Point", "coordinates": [ 144.990130845397687, -37.872786849793087 ] } },
{ "type": "Feature", "properties": { "gid": 69, "stop_id": "18976", "NAME": "39-Glen Eira Rd/Brighton Rd (Balaclava)", "latitude": -37.876636, "longitude": 144.992545, "ticketzone": "1", "routeussp": "67" }, "geometry": { "type": "Point", "coordinates": [ 144.992550764733721, -37.876622829976974 ] } },
{ "type": "Feature", "properties": { "gid": 70, "stop_id": "18977", "NAME": "40-Scott St/Brighton Rd (Balaclava)", "latitude": -37.878886, "longitude": 144.993973, "ticketzone": "1", "routeussp": "67" }, "geometry": { "type": "Point", "coordinates": [ 144.993978884549108, -37.878872829513796 ] } },
{ "type": "Feature", "properties": { "gid": 71, "stop_id": "18978", "NAME": "41-Coleridge St/Brighton Rd (Balaclava)", "latitude": -37.880798, "longitude": 144.995161, "ticketzone": "1", "routeussp": "67" }, "geometry": { "type": "Point", "coordinates": [ 144.995166883311725, -37.880784880333586 ] } },
{ "type": "Feature", "properties": { "gid": 72, "stop_id": "18979", "NAME": "42-Hotham St/Brighton Rd (Balaclava)", "latitude": -37.882957, "longitude": 144.996501, "ticketzone": "1", "routeussp": "67" }, "geometry": { "type": "Point", "coordinates": [ 144.996506803285257, -37.882943800128317 ] } },
{ "type": "Feature", "properties": { "gid": 73, "stop_id": "18980", "NAME": "43-Brighton Rd/Glenhuntly Rd (Elsternwick)", "latitude": -37.8838, "longitude": 144.997842, "ticketzone": "1", "routeussp": "67" }, "geometry": { "type": "Point", "coordinates": [ 144.997847802613023, -37.883786830377055 ] } },
{ "type": "Feature", "properties": { "gid": 74, "stop_id": "18981", "NAME": "44-Elsternwick Railway Station/Glenhuntly Rd (Elsternwick)", "latitude": -37.88415, "longitude": 145.00038, "ticketzone": "1", "routeussp": "67" }, "geometry": { "type": "Point", "coordinates": [ 145.000385802511289, -37.884136839979483 ] } },
{ "type": "Feature", "properties": { "gid": 75, "stop_id": "18982", "NAME": "45-Elsternwick Shopping Centre/Glenhuntly Rd (Elsternwick)", "latitude": -37.884613, "longitude": 145.003812, "ticketzone": "1", "routeussp": "67" }, "geometry": { "type": "Point", "coordinates": [ 145.003818041740175, -37.884599801082594 ] } },
{ "type": "Feature", "properties": { "gid": 76, "stop_id": "18983", "NAME": "46-Orrong Rd/Glenhuntly Rd (Elsternwick)", "latitude": -37.884862, "longitude": 145.005705, "ticketzone": "1", "routeussp": "67" }, "geometry": { "type": "Point", "coordinates": [ 145.005710921424878, -37.884848830825824 ] } },
{ "type": "Feature", "properties": { "gid": 77, "stop_id": "18984", "NAME": "47-Shoobra Rd/Glenhuntly Rd (Elsternwick)", "latitude": -37.885271, "longitude": 145.009127, "ticketzone": "1", "routeussp": "67" }, "geometry": { "type": "Point", "coordinates": [ 145.009133081212525, -37.885257880909982 ] } },
{ "type": "Feature", "properties": { "gid": 78, "stop_id": "18985", "NAME": "48-Parkside St/Glenhuntly Rd (Elsternwick)", "latitude": -37.885649, "longitude": 145.012267, "ticketzone": "1", "routeussp": "67" }, "geometry": { "type": "Point", "coordinates": [ 145.012273000740777, -37.885635881612373 ] } },
{ "type": "Feature", "properties": { "gid": 79, "stop_id": "18986", "NAME": "49-Kooyong Rd/Glenhuntly Rd (Elsternwick)", "latitude": -37.885963, "longitude": 145.014874, "ticketzone": "1", "routeussp": "67" }, "geometry": { "type": "Point", "coordinates": [ 145.014879759885844, -37.885949801668538 ] } },
{ "type": "Feature", "properties": { "gid": 80, "stop_id": "18987", "NAME": "50-Royal Pde/Glenhuntly Rd (Caulfield)", "latitude": -37.886391, "longitude": 145.01833, "ticketzone": "1", "routeussp": "67" }, "geometry": { "type": "Point", "coordinates": [ 145.018335759000848, -37.886377841752733 ] } },
{ "type": "Feature", "properties": { "gid": 81, "stop_id": "19000", "NAME": "67-Rogers Ave/Hawthorn Rd (Brighton East)", "latitude": -37.911078, "longitude": 145.017531, "ticketzone": "1", "routeussp": "64" }, "geometry": { "type": "Point", "coordinates": [ 145.017536916184582, -37.911064841568418 ] } },
{ "type": "Feature", "properties": { "gid": 82, "stop_id": "19001", "NAME": "66-Union St/Hawthorn Rd (Brighton East)", "latitude": -37.908517, "longitude": 145.017964, "ticketzone": "1", "routeussp": "64" }, "geometry": { "type": "Point", "coordinates": [ 145.017969996826082, -37.908503801391916 ] } },
{ "type": "Feature", "properties": { "gid": 83, "stop_id": "19002", "NAME": "65-Davey Ave/Hawthorn Rd (Brighton East)", "latitude": -37.90637, "longitude": 145.018329, "ticketzone": "1", "routeussp": "64" }, "geometry": { "type": "Point", "coordinates": [ 145.018335036870894, -37.906356851328404 ] } },
{ "type": "Feature", "properties": { "gid": 84, "stop_id": "19003", "NAME": "64-Taylor St/Hawthorn Rd (Brighton East)", "latitude": -37.903782, "longitude": 145.018808, "ticketzone": "1", "routeussp": "64" }, "geometry": { "type": "Point", "coordinates": [ 145.018813837734115, -37.903768811697361 ] } },
{ "type": "Feature", "properties": { "gid": 85, "stop_id": "19004", "NAME": "63-North Rd/Hawthorn Rd (Brighton East)", "latitude": -37.901196, "longitude": 145.019332, "ticketzone": "1", "routeussp": "64" }, "geometry": { "type": "Point", "coordinates": [ 145.019337996902379, -37.901182842019892 ] } },
{ "type": "Feature", "properties": { "gid": 86, "stop_id": "19005", "NAME": "62-Gardenvale Rd/Hawthorn Rd (Caulfield South)", "latitude": -37.898969, "longitude": 145.019801, "ticketzone": "1", "routeussp": "64" }, "geometry": { "type": "Point", "coordinates": [ 145.019807077818399, -37.898955881749785 ] } },
{ "type": "Feature", "properties": { "gid": 87, "stop_id": "19006", "NAME": "61-Stone St/Hawthorn Rd (Caulfield South)", "latitude": -37.896552, "longitude": 145.020253, "ticketzone": "1", "routeussp": "64" }, "geometry": { "type": "Point", "coordinates": [ 145.020258877599929, -37.896538842233873 ] } },
{ "type": "Feature", "properties": { "gid": 88, "stop_id": "19007", "NAME": "60-Dover St/Hawthorn Rd (Caulfield South)", "latitude": -37.894881, "longitude": 145.020548, "ticketzone": "1", "routeussp": "64" }, "geometry": { "type": "Point", "coordinates": [ 145.020554077666333, -37.894867812159923 ] } },
{ "type": "Feature", "properties": { "gid": 89, "stop_id": "19008", "NAME": "59-Princes Park/Hawthorn Rd (Caulfield South)", "latitude": -37.89304, "longitude": 145.020904, "ticketzone": "1", "routeussp": "64" }, "geometry": { "type": "Point", "coordinates": [ 145.020909758520617, -37.893026862189231 ] } },
{ "type": "Feature", "properties": { "gid": 90, "stop_id": "19009", "NAME": "58-Sycamore St/Hawthorn Rd (Caulfield South)", "latitude": -37.889608, "longitude": 145.021553, "ticketzone": "1", "routeussp": "64" }, "geometry": { "type": "Point", "coordinates": [ 145.021558838408765, -37.889594801681874 ] } },
{ "type": "Feature", "properties": { "gid": 91, "stop_id": "19010", "NAME": "57-Glenhuntly Rd/Hawthorn Rd (Caulfield)", "latitude": -37.886661, "longitude": 145.022098, "ticketzone": "1", "routeussp": "64" }, "geometry": { "type": "Point", "coordinates": [ 145.022103878347593, -37.886647841828442 ] } },
{ "type": "Feature", "properties": { "gid": 92, "stop_id": "19011", "NAME": "56-Briggs St/Hawthorn Rd (Caulfield)", "latitude": -37.884838, "longitude": 145.022443, "ticketzone": "1", "routeussp": "64" }, "geometry": { "type": "Point", "coordinates": [ 145.022448758918529, -37.884824802129359 ] } },
{ "type": "Feature", "properties": { "gid": 93, "stop_id": "19012", "NAME": "55-Sylverly Gr/Hawthorn Rd (Caulfield North)", "latitude": -37.882449, "longitude": 145.022916, "ticketzone": "1", "routeussp": "64" }, "geometry": { "type": "Point", "coordinates": [ 145.022921798586879, -37.882435842228546 ] } },
{ "type": "Feature", "properties": { "gid": 94, "stop_id": "19013", "NAME": "54-Glen Eira Rd/Hawthorn Rd (Caulfield North)", "latitude": -37.879934, "longitude": 145.023404, "ticketzone": "1", "routeussp": "64" }, "geometry": { "type": "Point", "coordinates": [ 145.023409959219634, -37.87992088211805 ] } },
{ "type": "Feature", "properties": { "gid": 95, "stop_id": "19014", "NAME": "53-Northcote Ave/Hawthorn Rd (Caulfield North)", "latitude": -37.877212, "longitude": 145.02392, "ticketzone": "1", "routeussp": "64" }, "geometry": { "type": "Point", "coordinates": [ 145.023925839659455, -37.877198832294518 ] } },
{ "type": "Feature", "properties": { "gid": 96, "stop_id": "19015", "NAME": "52-Halstead St/Hawthorn Rd (Caulfield North)", "latitude": -37.874939, "longitude": 145.024356, "ticketzone": "1", "routeussp": "64" }, "geometry": { "type": "Point", "coordinates": [ 145.024361799502032, -37.874925881813347 ] } },
{ "type": "Feature", "properties": { "gid": 97, "stop_id": "19016", "NAME": "51-Balaclava Rd/Hawthorn Rd (Caulfield North)", "latitude": -37.872441, "longitude": 145.02482, "ticketzone": "1", "routeussp": "64,16" }, "geometry": { "type": "Point", "coordinates": [ 145.024825839005388, -37.872427842008733 ] } },
{ "type": "Feature", "properties": { "gid": 98, "stop_id": "19017", "NAME": "50-Inkerman Rd/Hawthorn Rd (Caulfield North)", "latitude": -37.869514, "longitude": 145.02541, "ticketzone": "1", "routeussp": "64,16" }, "geometry": { "type": "Point", "coordinates": [ 145.025415879529305, -37.869500861756542 ] } },
{ "type": "Feature", "properties": { "gid": 99, "stop_id": "19018", "NAME": "49-Arthur St/Hawthorn Rd (Caulfield North)", "latitude": -37.86769, "longitude": 145.025754, "ticketzone": "1", "routeussp": "64,16" }, "geometry": { "type": "Point", "coordinates": [ 145.025760039957788, -37.867676832245365 ] } },
{ "type": "Feature", "properties": { "gid": 100, "stop_id": "19019", "NAME": "48-Hawthorn Rd/Dandenong Rd (Caulfield North)", "latitude": -37.865428, "longitude": 145.025769, "ticketzone": "1", "routeussp": "64" }, "geometry": { "type": "Point", "coordinates": [ 145.025774800459914, -37.865414862319966 ] } },
{ "type": "Feature", "properties": { "gid": 101, "stop_id": "19023", "NAME": "44-Bailey Ave/Dandenong Rd (Armadale)", "latitude": -37.864558, "longitude": 145.023837, "ticketzone": "1", "routeussp": "64" }, "geometry": { "type": "Point", "coordinates": [ 145.023843040009524, -37.864544831711193 ] } },
{ "type": "Feature", "properties": { "gid": 102, "stop_id": "19024", "NAME": "43-Egerton Rd/Dandenong Rd (Armadale)", "latitude": -37.863789, "longitude": 145.02205, "ticketzone": "1", "routeussp": "64" }, "geometry": { "type": "Point", "coordinates": [ 145.022056000734381, -37.863775871603224 ] } },
{ "type": "Feature", "properties": { "gid": 103, "stop_id": "19025", "NAME": "42-Kooyong Rd/Dandenong Rd (Armadale)", "latitude": -37.86257, "longitude": 145.019219, "ticketzone": "1", "routeussp": "64" }, "geometry": { "type": "Point", "coordinates": [ 145.019224962037214, -37.862556821193202 ] } },
{ "type": "Feature", "properties": { "gid": 104, "stop_id": "19026", "NAME": "41-Cantala Ave/Dandenong Rd (Armadale)", "latitude": -37.861923, "longitude": 145.017735, "ticketzone": "1", "routeussp": "64" }, "geometry": { "type": "Point", "coordinates": [ 145.017741041466479, -37.861909811094399 ] } },
{ "type": "Feature", "properties": { "gid": 105, "stop_id": "19027", "NAME": "40-Wattletree Rd/Dandenong Rd (Armadale)", "latitude": -37.860825, "longitude": 145.015173, "ticketzone": "1", "routeussp": "64,5" }, "geometry": { "type": "Point", "coordinates": [ 145.015178922236061, -37.86081181147776 ] } },
{ "type": "Feature", "properties": { "gid": 106, "stop_id": "19028", "NAME": "38-Orrong Rd/Dandenong Rd (Prahran)", "latitude": -37.86027, "longitude": 145.011119, "ticketzone": "1", "routeussp": "64,5" }, "geometry": { "type": "Point", "coordinates": [ 145.011124962832099, -37.860256871200882 ] } },
{ "type": "Feature", "properties": { "gid": 107, "stop_id": "19029", "NAME": "37-Lansdowne Rd/Dandenong Rd (St Kilda East)", "latitude": -37.859804, "longitude": 145.007528, "ticketzone": "1", "routeussp": "64,5" }, "geometry": { "type": "Point", "coordinates": [ 145.007533964394156, -37.859790850844895 ] } },
{ "type": "Feature", "properties": { "gid": 108, "stop_id": "19030", "NAME": "36-Closeburn Ave/Dandenong Rd (St Kilda East)", "latitude": -37.859395, "longitude": 145.004641, "ticketzone": "1", "routeussp": "64,5" }, "geometry": { "type": "Point", "coordinates": [ 145.004646764752096, -37.859381800583449 ] } },
{ "type": "Feature", "properties": { "gid": 109, "stop_id": "19031", "NAME": "35-Williams Rd/Dandenong Rd (Prahran)", "latitude": -37.859063, "longitude": 145.00207, "ticketzone": "1", "routeussp": "64,5" }, "geometry": { "type": "Point", "coordinates": [ 145.002076005190133, -37.859049880457661 ] } },
{ "type": "Feature", "properties": { "gid": 110, "stop_id": "19032", "NAME": "34-The Avenue/Dandenong Rd (Windsor)", "latitude": -37.858413, "longitude": 144.997234, "ticketzone": "1", "routeussp": "64,5" }, "geometry": { "type": "Point", "coordinates": [ 144.997239766377504, -37.858399809814628 ] } },
{ "type": "Feature", "properties": { "gid": 111, "stop_id": "19033", "NAME": "33-Hornby St/Dandenong Rd (Windsor)", "latitude": -37.858206, "longitude": 144.995694, "ticketzone": "1", "routeussp": "64,5" }, "geometry": { "type": "Point", "coordinates": [ 144.995700046689336, -37.858192809550019 ] } },
{ "type": "Feature", "properties": { "gid": 112, "stop_id": "19034", "NAME": "32-Chapel St/Dandenong Rd (Windsor)", "latitude": -37.857494, "longitude": 144.991996, "ticketzone": "1", "routeussp": "64,5" }, "geometry": { "type": "Point", "coordinates": [ 144.992001766863183, -37.857480819265909 ] } },
{ "type": "Feature", "properties": { "gid": 113, "stop_id": "19035", "NAME": "31-Queens Way/Queens Way (Windsor)", "latitude": -37.856154, "longitude": 144.987406, "ticketzone": "1", "routeussp": "64,5" }, "geometry": { "type": "Point", "coordinates": [ 144.987411767343303, -37.85614080895985 ] } },
{ "type": "Feature", "properties": { "gid": 114, "stop_id": "19036", "NAME": "70-Cotham Rd/Burke Rd (Kew)", "latitude": -37.810873, "longitude": 145.060596, "ticketzone": "1", "routeussp": "72" }, "geometry": { "type": "Point", "coordinates": [ 145.060601919817771, -37.810859833803953 ] } },
{ "type": "Feature", "properties": { "gid": 115, "stop_id": "19037", "NAME": "69-Peverill St/Burke Rd (Balwyn)", "latitude": -37.814108, "longitude": 145.060069, "ticketzone": "1", "routeussp": "72" }, "geometry": { "type": "Point", "coordinates": [ 145.060074879870029, -37.81409488362501 ] } },
{ "type": "Feature", "properties": { "gid": 116, "stop_id": "19038", "NAME": "68-Mont Albert Rd/Burke Rd (Camberwell)", "latitude": -37.815743, "longitude": 145.059765, "ticketzone": "1", "routeussp": "72" }, "geometry": { "type": "Point", "coordinates": [ 145.059771039784039, -37.815729824493516 ] } },
{ "type": "Feature", "properties": { "gid": 117, "stop_id": "19039", "NAME": "67-Camberwell Girls Grammar/Burke Rd (Canterbury)", "latitude": -37.818492, "longitude": 145.059227, "ticketzone": "1", "routeussp": "72" }, "geometry": { "type": "Point", "coordinates": [ 145.059232839600099, -37.818478874095256 ] } },
{ "type": "Feature", "properties": { "gid": 118, "stop_id": "19040", "NAME": "66-Canterbury Rd/Burke Rd (Camberwell)", "latitude": -37.821287, "longitude": 145.058722, "ticketzone": "1", "routeussp": "72" }, "geometry": { "type": "Point", "coordinates": [ 145.058727759184393, -37.821273824151092 ] } },
{ "type": "Feature", "properties": { "gid": 119, "stop_id": "19041", "NAME": "65-Victoria Rd/Burke Rd (Camberwell)", "latitude": -37.823434, "longitude": 145.058313, "ticketzone": "1", "routeussp": "72" }, "geometry": { "type": "Point", "coordinates": [ 145.058318798621343, -37.823420863790133 ] } },
{ "type": "Feature", "properties": { "gid": 120, "stop_id": "19042", "NAME": "64-Camberwell Station/Burke Rd (Camberwell)", "latitude": -37.825967, "longitude": 145.057815, "ticketzone": "1", "routeussp": "72" }, "geometry": { "type": "Point", "coordinates": [ 145.057820919332158, -37.825953824153608 ] } },
{ "type": "Feature", "properties": { "gid": 121, "stop_id": "19043", "NAME": "63-Prospect Hill Rd/Burke Rd (Camberwell)", "latitude": -37.828024, "longitude": 145.057432, "ticketzone": "1", "routeussp": "72" }, "geometry": { "type": "Point", "coordinates": [ 145.057437878324436, -37.828010863961978 ] } },
{ "type": "Feature", "properties": { "gid": 122, "stop_id": "19044", "NAME": "61-Camberwell Junction/Burke Rd (Camberwell)", "latitude": -37.831088, "longitude": 145.05684, "ticketzone": "1", "routeussp": "72" }, "geometry": { "type": "Point", "coordinates": [ 145.056846038194209, -37.831074823870281 ] } },
{ "type": "Feature", "properties": { "gid": 123, "stop_id": "19045", "NAME": "60-Reserve Rd/Burke Rd (Camberwell)", "latitude": -37.83389, "longitude": 145.056312, "ticketzone": "1", "routeussp": "72" }, "geometry": { "type": "Point", "coordinates": [ 145.056317917736777, -37.833876883953401 ] } },
{ "type": "Feature", "properties": { "gid": 124, "stop_id": "19046", "NAME": "59-Seymour Gr/Burke Rd (Camberwell)", "latitude": -37.835193, "longitude": 145.056074, "ticketzone": "1", "routeussp": "72" }, "geometry": { "type": "Point", "coordinates": [ 145.056079958679703, -37.835179814053461 ] } },
{ "type": "Feature", "properties": { "gid": 125, "stop_id": "19047", "NAME": "58-Currajong Ave/Burke Rd (Camberwell)", "latitude": -37.838086, "longitude": 145.05552, "ticketzone": "1", "routeussp": "72" }, "geometry": { "type": "Point", "coordinates": [ 145.055525917924768, -37.838072863967668 ] } },
{ "type": "Feature", "properties": { "gid": 126, "stop_id": "19048", "NAME": "57-Pine Ave/Burke Rd (Camberwell)", "latitude": -37.840062, "longitude": 145.055139, "ticketzone": "1", "routeussp": "72" }, "geometry": { "type": "Point", "coordinates": [ 145.055145037501376, -37.840048814250835 ] } },
{ "type": "Feature", "properties": { "gid": 127, "stop_id": "19049", "NAME": "56-Anderson Rd/Burke Rd (Camberwell)", "latitude": -37.841589, "longitude": 145.054849, "ticketzone": "1", "routeussp": "72" }, "geometry": { "type": "Point", "coordinates": [ 145.054854877843667, -37.841575844172972 ] } },
{ "type": "Feature", "properties": { "gid": 128, "stop_id": "19050", "NAME": "55-Middle Rd/Burke Rd (Camberwell)", "latitude": -37.843656, "longitude": 145.054454, "ticketzone": "1", "routeussp": "72" }, "geometry": { "type": "Point", "coordinates": [ 145.054459957536693, -37.843642873530904 ] } },
{ "type": "Feature", "properties": { "gid": 129, "stop_id": "19051", "NAME": "54-Toorak Rd/Burke Rd (Camberwell)", "latitude": -37.845614, "longitude": 145.054084, "ticketzone": "1", "routeussp": "72" }, "geometry": { "type": "Point", "coordinates": [ 145.054089877137358, -37.845600823435426 ] } },
{ "type": "Feature", "properties": { "gid": 130, "stop_id": "19052", "NAME": "53-Howitt St/Burke Rd (Glen Iris)", "latitude": -37.847878, "longitude": 145.053627, "ticketzone": "1", "routeussp": "72" }, "geometry": { "type": "Point", "coordinates": [ 145.053633036882871, -37.847864863579154 ] } },
{ "type": "Feature", "properties": { "gid": 131, "stop_id": "19053", "NAME": "52-Bickleigh St/Burke Rd (Glen Iris)", "latitude": -37.849881, "longitude": 145.053222, "ticketzone": "1", "routeussp": "72" }, "geometry": { "type": "Point", "coordinates": [ 145.053228036562246, -37.849867813840397 ] } },
{ "type": "Feature", "properties": { "gid": 132, "stop_id": "19054", "NAME": "51-Gardiner Station/Burke Rd (Glen Iris)", "latitude": -37.852962, "longitude": 145.052663, "ticketzone": "1", "routeussp": "72" }, "geometry": { "type": "Point", "coordinates": [ 145.052668956725796, -37.852948873796329 ] } },
{ "type": "Feature", "properties": { "gid": 133, "stop_id": "19056", "NAME": "50-Glenarm Rd/Malvern Rd (Glen Iris)", "latitude": -37.854418, "longitude": 145.051295, "ticketzone": "1", "routeussp": "72" }, "geometry": { "type": "Point", "coordinates": [ 145.051300956772337, -37.854404803482112 ] } },
{ "type": "Feature", "properties": { "gid": 134, "stop_id": "19057", "NAME": "49-Belmont Ave/Malvern Rd (Glen Iris)", "latitude": -37.854046, "longitude": 145.048418, "ticketzone": "1", "routeussp": "72" }, "geometry": { "type": "Point", "coordinates": [ 145.048423837694997, -37.85403283386821 ] } },
{ "type": "Feature", "properties": { "gid": 135, "stop_id": "19058", "NAME": "48-Edgar St/Malvern Rd (Glen Iris)", "latitude": -37.853732, "longitude": 145.045835, "ticketzone": "1", "routeussp": "72" }, "geometry": { "type": "Point", "coordinates": [ 145.045840837879126, -37.85371882326524 ] } },
{ "type": "Feature", "properties": { "gid": 136, "stop_id": "19059", "NAME": "47-Tooronga Rd/Malvern Rd (Glen Iris)", "latitude": -37.853304, "longitude": 145.0423, "ticketzone": "1", "routeussp": "72" }, "geometry": { "type": "Point", "coordinates": [ 145.042305998043275, -37.853290873291769 ] } },
{ "type": "Feature", "properties": { "gid": 137, "stop_id": "19060", "NAME": "46-Shaftesbury Ave/Malvern Rd (Malvern)", "latitude": -37.852859, "longitude": 145.038823, "ticketzone": "1", "routeussp": "72" }, "geometry": { "type": "Point", "coordinates": [ 145.038828759661101, -37.852845823223788 ] } },
{ "type": "Feature", "properties": { "gid": 138, "stop_id": "19061", "NAME": "45-Elizabeth St/Malvern Rd (Malvern)", "latitude": -37.852434, "longitude": 145.035504, "ticketzone": "1", "routeussp": "72" }, "geometry": { "type": "Point", "coordinates": [ 145.035509920424772, -37.852420842943147 ] } },
{ "type": "Feature", "properties": { "gid": 139, "stop_id": "19062", "NAME": "44-Plant St/Malvern Rd (Malvern)", "latitude": -37.852084, "longitude": 145.032888, "ticketzone": "1", "routeussp": "72" }, "geometry": { "type": "Point", "coordinates": [ 145.032893799885528, -37.852070832862481 ] } },
{ "type": "Feature", "properties": { "gid": 140, "stop_id": "19063", "NAME": "43-Glenferrie Rd/Malvern Rd (Malvern)", "latitude": -37.851723, "longitude": 145.030204, "ticketzone": "1", "routeussp": "72" }, "geometry": { "type": "Point", "coordinates": [ 145.030210001067644, -37.85170984205886 ] } },
{ "type": "Feature", "properties": { "gid": 141, "stop_id": "19064", "NAME": "42-Lauriston Girls School/Malvern Rd (Armadale)", "latitude": -37.85119, "longitude": 145.026331, "ticketzone": "1", "routeussp": "72" }, "geometry": { "type": "Point", "coordinates": [ 145.026336761809034, -37.851176861687236 ] } },
{ "type": "Feature", "properties": { "gid": 142, "stop_id": "19065", "NAME": "41-Murray St/Malvern Rd (Malvern)", "latitude": -37.850879, "longitude": 145.023918, "ticketzone": "1", "routeussp": "72" }, "geometry": { "type": "Point", "coordinates": [ 145.023924041656073, -37.850865821398941 ] } },
{ "type": "Feature", "properties": { "gid": 143, "stop_id": "19066", "NAME": "40-Kooyong Rd/Malvern Rd (Toorak)", "latitude": -37.850588, "longitude": 145.021596, "ticketzone": "1", "routeussp": "72" }, "geometry": { "type": "Point", "coordinates": [ 145.021602042517202, -37.850574851632224 ] } },
{ "type": "Feature", "properties": { "gid": 144, "stop_id": "19067", "NAME": "39-Densham Rd/Malvern Rd (Toorak)", "latitude": -37.850156, "longitude": 145.018426, "ticketzone": "1", "routeussp": "72" }, "geometry": { "type": "Point", "coordinates": [ 145.018431883070662, -37.850142851589887 ] } },
{ "type": "Feature", "properties": { "gid": 145, "stop_id": "19068", "NAME": "38-Clendon Rd/Malvern Rd (Toorak)", "latitude": -37.849793, "longitude": 145.015617, "ticketzone": "1", "routeussp": "72" }, "geometry": { "type": "Point", "coordinates": [ 145.015622804069466, -37.849779881368946 ] } },
{ "type": "Feature", "properties": { "gid": 146, "stop_id": "19069", "NAME": "37-Orrong Rd/Malvern Rd (Toorak)", "latitude": -37.84938, "longitude": 145.012469, "ticketzone": "1", "routeussp": "72" }, "geometry": { "type": "Point", "coordinates": [ 145.012474964486756, -37.849366870650371 ] } },
{ "type": "Feature", "properties": { "gid": 147, "stop_id": "19070", "NAME": "51-Hawthorn Rd/Glenhuntly Rd (Caulfield)", "latitude": -37.886809, "longitude": 145.021764, "ticketzone": "1", "routeussp": "67" }, "geometry": { "type": "Point", "coordinates": [ 145.021769798053839, -37.886795801692386 ] } },
{ "type": "Feature", "properties": { "gid": 148, "stop_id": "19071", "NAME": "52-Jasmine St/Glenhuntly Rd (Caulfield)", "latitude": -37.88711, "longitude": 145.024121, "ticketzone": "1", "routeussp": "67" }, "geometry": { "type": "Point", "coordinates": [ 145.024127078576271, -37.88709685220207 ] } },
{ "type": "Feature", "properties": { "gid": 149, "stop_id": "19072", "NAME": "53-Glenhuntly Tram Depot/Glenhuntly Rd (Caulfield)", "latitude": -37.887451, "longitude": 145.02675, "ticketzone": "1", "routeussp": "67" }, "geometry": { "type": "Point", "coordinates": [ 145.026755797108081, -37.887437862663873 ] } },
{ "type": "Feature", "properties": { "gid": 150, "stop_id": "19073", "NAME": "54-Bambra Rd/Glenhuntly Rd (Caulfield)", "latitude": -37.887673, "longitude": 145.028689, "ticketzone": "1", "routeussp": "67" }, "geometry": { "type": "Point", "coordinates": [ 145.028694757586123, -37.887659802117888 ] } },
{ "type": "Feature", "properties": { "gid": 151, "stop_id": "19074", "NAME": "55-Fallon St/Glenhuntly Rd (Caulfield)", "latitude": -37.887931, "longitude": 145.030615, "ticketzone": "1", "routeussp": "67" }, "geometry": { "type": "Point", "coordinates": [ 145.030620756877994, -37.887917832778129 ] } },
{ "type": "Feature", "properties": { "gid": 152, "stop_id": "19075", "NAME": "56-Kambrook Rd/Glenhuntly Rd (Caulfield)", "latitude": -37.888251, "longitude": 145.033085, "ticketzone": "1", "routeussp": "67" }, "geometry": { "type": "Point", "coordinates": [ 145.033091076440712, -37.888237872761927 ] } },
{ "type": "Feature", "properties": { "gid": 153, "stop_id": "19076", "NAME": "57-Clarke Ave/Glenhuntly Rd (Caulfield East)", "latitude": -37.888502, "longitude": 145.035114, "ticketzone": "1", "routeussp": "67" }, "geometry": { "type": "Point", "coordinates": [ 145.035120035972426, -37.888488882423978 ] } },
{ "type": "Feature", "properties": { "gid": 154, "stop_id": "19077", "NAME": "58-Booran Rd/Glenhuntly Rd (Caulfield East)", "latitude": -37.888794, "longitude": 145.03754, "ticketzone": "1", "routeussp": "67" }, "geometry": { "type": "Point", "coordinates": [ 145.037546075073863, -37.888780843143905 ] } },
{ "type": "Feature", "properties": { "gid": 155, "stop_id": "19078", "NAME": "60-Glenhuntly Shops/Glenhuntly Rd (Caulfield East)", "latitude": -37.889132, "longitude": 145.040476, "ticketzone": "1", "routeussp": "67" }, "geometry": { "type": "Point", "coordinates": [ 145.040481874516274, -37.889118883448852 ] } },
{ "type": "Feature", "properties": { "gid": 156, "stop_id": "19079", "NAME": "61-Glenhuntly Railway Station/Glenhuntly Rd (Caulfield South)", "latitude": -37.889307, "longitude": 145.041824, "ticketzone": "1", "routeussp": "67" }, "geometry": { "type": "Point", "coordinates": [ 145.041830074851731, -37.889293843234547 ] } },
{ "type": "Feature", "properties": { "gid": 157, "stop_id": "19081", "NAME": "62-Grange Rd/Glenhuntly Rd (Caulfield East)", "latitude": -37.889633, "longitude": 145.04459, "ticketzone": "1", "routeussp": "67" }, "geometry": { "type": "Point", "coordinates": [ 145.044595954036907, -37.889619823871705 ] } },
{ "type": "Feature", "properties": { "gid": 158, "stop_id": "18512", "NAME": "34-Maribyrnong Rd/Ascot Vale Rd (Moonee Ponds)", "latitude": -37.772452, "longitude": 144.924024, "ticketzone": "1", "routeussp": "82" }, "geometry": { "type": "Point", "coordinates": [ 144.924029828461869, -37.772438824499019 ] } },
{ "type": "Feature", "properties": { "gid": 159, "stop_id": "18513", "NAME": "35-Moore St/Maribyrnong Rd (Moonee Ponds)", "latitude": -37.77234, "longitude": 144.921234, "ticketzone": "1", "routeussp": "82" }, "geometry": { "type": "Point", "coordinates": [ 144.921239828125152, -37.77232686423644 ] } },
{ "type": "Feature", "properties": { "gid": 160, "stop_id": "18514", "NAME": "36-Bayview Tce/Maribyrnong Rd (Moonee Ponds)", "latitude": -37.772026, "longitude": 144.918257, "ticketzone": "1", "routeussp": "82" }, "geometry": { "type": "Point", "coordinates": [ 144.91826298898323, -37.772012854517456 ] } },
{ "type": "Feature", "properties": { "gid": 161, "stop_id": "18515", "NAME": "37-Union Rd/Maribyrnong Rd (Moonee Ponds)", "latitude": -37.771812, "longitude": 144.916322, "ticketzone": "1", "routeussp": "82" }, "geometry": { "type": "Point", "coordinates": [ 144.916327989590656, -37.771798834318091 ] } },
{ "type": "Feature", "properties": { "gid": 162, "stop_id": "18516", "NAME": "38-Ferguson St/Maribyrnong Rd (Ascot Vale)", "latitude": -37.771415, "longitude": 144.912757, "ticketzone": "1", "routeussp": "82,57" }, "geometry": { "type": "Point", "coordinates": [ 144.912762909558296, -37.771401843586425 ] } },
{ "type": "Feature", "properties": { "gid": 163, "stop_id": "18517", "NAME": "39-Bowen St/Maribyrnong Rd (Moonee Ponds)", "latitude": -37.771027, "longitude": 144.90918, "ticketzone": "1", "routeussp": "82,57" }, "geometry": { "type": "Point", "coordinates": [ 144.909185950174333, -37.77101385341917 ] } },
{ "type": "Feature", "properties": { "gid": 164, "stop_id": "18518", "NAME": "40-Epsom Rd/Maribyrnong Rd (Ascot Vale)", "latitude": -37.770631, "longitude": 144.905672, "ticketzone": "1", "routeussp": "82,57" }, "geometry": { "type": "Point", "coordinates": [ 144.905678111296766, -37.770617853044918 ] } },
{ "type": "Feature", "properties": { "gid": 165, "stop_id": "18519", "NAME": "37-Maribyrnong Rd/Union Rd (Ascot Vale)", "latitude": -37.77187, "longitude": 144.91607, "ticketzone": "1", "routeussp": "57" }, "geometry": { "type": "Point", "coordinates": [ 144.916075988978719, -37.771856793873312 ] } },
{ "type": "Feature", "properties": { "gid": 166, "stop_id": "18520", "NAME": "36-St Leonards Rd/Union Rd (Ascot Vale)", "latitude": -37.773703, "longitude": 144.91578, "ticketzone": "1", "routeussp": "57" }, "geometry": { "type": "Point", "coordinates": [ 144.915785828662479, -37.773689823700494 ] } },
{ "type": "Feature", "properties": { "gid": 167, "stop_id": "18521", "NAME": "35-Munro St/Union Rd (Ascot Vale)", "latitude": -37.776103, "longitude": 144.915395, "ticketzone": "1", "routeussp": "57" }, "geometry": { "type": "Point", "coordinates": [ 144.915400989382249, -37.776089853556243 ] } },
{ "type": "Feature", "properties": { "gid": 168, "stop_id": "18522", "NAME": "34-Burrowes St/Union Rd (Ascot Vale)", "latitude": -37.778627, "longitude": 144.914949, "ticketzone": "1", "routeussp": "57" }, "geometry": { "type": "Point", "coordinates": [ 144.914954949060956, -37.778613813829281 ] } },
{ "type": "Feature", "properties": { "gid": 169, "stop_id": "18524", "NAME": "32-Sandown Rd/Epsom Rd (Ascot Vale)", "latitude": -37.782668, "longitude": 144.916675, "ticketzone": "1", "routeussp": "57" }, "geometry": { "type": "Point", "coordinates": [ 144.916680788044914, -37.782654814435261 ] } },
{ "type": "Feature", "properties": { "gid": 170, "stop_id": "18525", "NAME": "31-Racing Victoria/400 Epsom Rd (Flemington)", "latitude": -37.784425, "longitude": 144.918204, "ticketzone": "1", "routeussp": "57" }, "geometry": { "type": "Point", "coordinates": [ 144.918210067803045, -37.784411793949317 ] } },
{ "type": "Feature", "properties": { "gid": 171, "stop_id": "18526", "NAME": "30-Flemington Racecourse/Epsom Rd (Flemington)", "latitude": -37.785913, "longitude": 144.919786, "ticketzone": "1", "routeussp": "57" }, "geometry": { "type": "Point", "coordinates": [ 144.919791906803795, -37.785899854639119 ] } },
{ "type": "Feature", "properties": { "gid": 172, "stop_id": "18527", "NAME": "29-Flemington Racecourse/Racecourse Rd (Flemington)", "latitude": -37.787446, "longitude": 144.921889, "ticketzone": "1", "routeussp": "57" }, "geometry": { "type": "Point", "coordinates": [ 144.9218950268627, -37.787432824372232 ] } },
{ "type": "Feature", "properties": { "gid": 173, "stop_id": "18528", "NAME": "28-Smithfield Rd/Racecourse Rd (Flemington)", "latitude": -37.787741, "longitude": 144.925345, "ticketzone": "1", "routeussp": "57" }, "geometry": { "type": "Point", "coordinates": [ 144.925351026299211, -37.787727844594897 ] } },
{ "type": "Feature", "properties": { "gid": 174, "stop_id": "18529", "NAME": "26-Newmarket Plaza/Racecourse Rd (Kensington)", "latitude": -37.788074, "longitude": 144.92839, "ticketzone": "1", "routeussp": "57" }, "geometry": { "type": "Point", "coordinates": [ 144.928395905427607, -37.788060845141942 ] } },
{ "type": "Feature", "properties": { "gid": 175, "stop_id": "18530", "NAME": "25-Wellington St/Racecourse Rd (Flemington)", "latitude": -37.788354, "longitude": 144.93046, "ticketzone": "1", "routeussp": "57" }, "geometry": { "type": "Point", "coordinates": [ 144.930465905130831, -37.788340834866396 ] } },
{ "type": "Feature", "properties": { "gid": 176, "stop_id": "18531", "NAME": "24-Collett St/Racecourse Rd (Kensington)", "latitude": -37.788507, "longitude": 144.933522, "ticketzone": "1", "routeussp": "57" }, "geometry": { "type": "Point", "coordinates": [ 144.933528064236611, -37.788493834808342 ] } },
{ "type": "Feature", "properties": { "gid": 177, "stop_id": "18532", "NAME": "23-Stubbs St/Racecourse Rd (Flemington)", "latitude": -37.788749, "longitude": 144.93548, "ticketzone": "1", "routeussp": "57" }, "geometry": { "type": "Point", "coordinates": [ 144.935486104634947, -37.788735845775101 ] } },
{ "type": "Feature", "properties": { "gid": 178, "stop_id": "18533", "NAME": "22-Boundary Rd/Racecourse Rd (North Melbourne)", "latitude": -37.789209, "longitude": 144.940145, "ticketzone": "1", "routeussp": "57" }, "geometry": { "type": "Point", "coordinates": [ 144.94015098359705, -37.789195835600069 ] } },
{ "type": "Feature", "properties": { "gid": 179, "stop_id": "18536", "NAME": "19-Abbotsford St Interchange/Abbotsford St (North Melbourne)", "latitude": -37.793729, "longitude": 144.947163, "ticketzone": "1", "routeussp": "57" }, "geometry": { "type": "Point", "coordinates": [ 144.947168821053481, -37.793715816304314 ] } },
{ "type": "Feature", "properties": { "gid": 180, "stop_id": "18537", "NAME": "18-Erskine St/Abbotsford St (North Melbourne)", "latitude": -37.795246, "longitude": 144.946803, "ticketzone": "1", "routeussp": "57" }, "geometry": { "type": "Point", "coordinates": [ 144.946808822048922, -37.795232856510864 ] } },
{ "type": "Feature", "properties": { "gid": 181, "stop_id": "18538", "NAME": "17-Canning St/Abbotsford St (North Melbourne)", "latitude": -37.796719, "longitude": 144.946535, "ticketzone": "1", "routeussp": "57" }, "geometry": { "type": "Point", "coordinates": [ 144.946540981886699, -37.796705796172063 ] } },
{ "type": "Feature", "properties": { "gid": 182, "stop_id": "18539", "NAME": "16-Haines St/Abbotsford St (North Melbourne)", "latitude": -37.797968, "longitude": 144.946319, "ticketzone": "1", "routeussp": "57" }, "geometry": { "type": "Point", "coordinates": [ 144.946324981270919, -37.797954815912348 ] } },
{ "type": "Feature", "properties": { "gid": 183, "stop_id": "18540", "NAME": "15-Arden St/Abbotsford St (North Melbourne)", "latitude": -37.800672, "longitude": 144.945835, "ticketzone": "1", "routeussp": "57" }, "geometry": { "type": "Point", "coordinates": [ 144.945840781208801, -37.800658866198255 ] } },
{ "type": "Feature", "properties": { "gid": 184, "stop_id": "18541", "NAME": "14-Abbotsford St/Queensberry St (North Melbourne)", "latitude": -37.802663, "longitude": 144.945802, "ticketzone": "1", "routeussp": "57" }, "geometry": { "type": "Point", "coordinates": [ 144.945808021409249, -37.802649846335655 ] } },
{ "type": "Feature", "properties": { "gid": 185, "stop_id": "18543", "NAME": "23-Royal Park/Royal Park (Parkville)", "latitude": -37.791414, "longitude": 144.949294, "ticketzone": "1", "routeussp": "58" }, "geometry": { "type": "Point", "coordinates": [ 144.949300021757523, -37.791400836566169 ] } },
{ "type": "Feature", "properties": { "gid": 186, "stop_id": "18544", "NAME": "24-Elliott Ave/Royal Park (Parkville)", "latitude": -37.787878, "longitude": 144.949619, "ticketzone": "1", "routeussp": "58" }, "geometry": { "type": "Point", "coordinates": [ 144.949625102110957, -37.787864826056641 ] } },
{ "type": "Feature", "properties": { "gid": 187, "stop_id": "18545", "NAME": "25-State Netball Hockey Centre/Royal Park (Parkville)", "latitude": -37.784383, "longitude": 144.94867, "ticketzone": "1", "routeussp": "58" }, "geometry": { "type": "Point", "coordinates": [ 144.948675782210927, -37.784369856514211 ] } },
{ "type": "Feature", "properties": { "gid": 188, "stop_id": "18546", "NAME": "26-Melbourne Zoo/Royal Park (Parkville)", "latitude": -37.782375, "longitude": 144.949282, "ticketzone": "1", "routeussp": "58" }, "geometry": { "type": "Point", "coordinates": [ 144.949287782225781, -37.782361866011044 ] } },
{ "type": "Feature", "properties": { "gid": 189, "stop_id": "18547", "NAME": "27-Royal Park Station/Royal Park (Parkville)", "latitude": -37.780872, "longitude": 144.950925, "ticketzone": "1", "routeussp": "58" }, "geometry": { "type": "Point", "coordinates": [ 144.950930822809141, -37.780858866417425 ] } },
{ "type": "Feature", "properties": { "gid": 190, "stop_id": "18548", "NAME": "28-Park St/Royal Park (Parkville)", "latitude": -37.776917, "longitude": 144.94949, "ticketzone": "1", "routeussp": "58" }, "geometry": { "type": "Point", "coordinates": [ 144.949495863225764, -37.776903815842182 ] } },
{ "type": "Feature", "properties": { "gid": 191, "stop_id": "18549", "NAME": "29-Brunswick Rd/Royal Park (Parkville)", "latitude": -37.775814, "longitude": 144.948748, "ticketzone": "1", "routeussp": "58" }, "geometry": { "type": "Point", "coordinates": [ 144.948753903703164, -37.775800866310924 ] } },
{ "type": "Feature", "properties": { "gid": 192, "stop_id": "18550", "NAME": "30-Union Square Shopping Centre/Grantham St (Brunswick West)", "latitude": -37.772562, "longitude": 144.949315, "ticketzone": "1", "routeussp": "58" }, "geometry": { "type": "Point", "coordinates": [ 144.949320902961318, -37.772548806281193 ] } },
{ "type": "Feature", "properties": { "gid": 193, "stop_id": "18551", "NAME": "31-Dawson St/Grantham St (Brunswick West)", "latitude": -37.770298, "longitude": 144.949741, "ticketzone": "1", "routeussp": "58" }, "geometry": { "type": "Point", "coordinates": [ 144.949746783164926, -37.770284855916529 ] } },
{ "type": "Feature", "properties": { "gid": 194, "stop_id": "18552", "NAME": "32-Foden St/Dawson St (Brunswick)", "latitude": -37.769923, "longitude": 144.947356, "ticketzone": "1", "routeussp": "58" }, "geometry": { "type": "Point", "coordinates": [ 144.947361783709823, -37.769909826338747 ] } },
{ "type": "Feature", "properties": { "gid": 195, "stop_id": "18553", "NAME": "33-Daly St/Dawson St (Brunswick)", "latitude": -37.769593, "longitude": 144.944425, "ticketzone": "1", "routeussp": "58" }, "geometry": { "type": "Point", "coordinates": [ 144.944431024761258, -37.769579795552595 ] } },
{ "type": "Feature", "properties": { "gid": 196, "stop_id": "18554", "NAME": "34-Smith St/Melville Rd (Brunswick West)", "latitude": -37.767614, "longitude": 144.943095, "ticketzone": "1", "routeussp": "58" }, "geometry": { "type": "Point", "coordinates": [ 144.943100825130273, -37.767600875968341 ] } },
{ "type": "Feature", "properties": { "gid": 197, "stop_id": "18555", "NAME": "35-Victoria St/Melville Rd (Brunswick West)", "latitude": -37.764912, "longitude": 144.94368, "ticketzone": "1", "routeussp": "58" }, "geometry": { "type": "Point", "coordinates": [ 144.943685825252913, -37.764898805608517 ] } },
{ "type": "Feature", "properties": { "gid": 198, "stop_id": "18556", "NAME": "36-Hope St/Melville Rd (Brunswick West)", "latitude": -37.762162, "longitude": 144.944154, "ticketzone": "1", "routeussp": "58" }, "geometry": { "type": "Point", "coordinates": [ 144.944159945756979, -37.762148856065608 ] } },
{ "type": "Feature", "properties": { "gid": 199, "stop_id": "18557", "NAME": "37-Albion St/Melville Rd (Brunswick West)", "latitude": -37.75874, "longitude": 144.944771, "ticketzone": "1", "routeussp": "58" }, "geometry": { "type": "Point", "coordinates": [ 144.94477698536528, -37.758726876061935 ] } },
{ "type": "Feature", "properties": { "gid": 200, "stop_id": "18558", "NAME": "38-Jacobs Reserve/Melville Rd (Brunswick West)", "latitude": -37.756764, "longitude": 144.945154, "ticketzone": "1", "routeussp": "58" }, "geometry": { "type": "Point", "coordinates": [ 144.945160025902055, -37.75675083596721 ] } },
{ "type": "Feature", "properties": { "gid": 201, "stop_id": "18559", "NAME": "39-McGregor Ave/Melville Rd (Brunswick West)", "latitude": -37.754779, "longitude": 144.94555, "ticketzone": "1", "routeussp": "58" }, "geometry": { "type": "Point", "coordinates": [ 144.945556026353586, -37.754765795926318 ] } },
{ "type": "Feature", "properties": { "gid": 202, "stop_id": "18560", "NAME": "40-Moreland Rd/Melville Rd (Brunswick West)", "latitude": -37.753429, "longitude": 144.945655, "ticketzone": "1", "routeussp": "58" }, "geometry": { "type": "Point", "coordinates": [ 144.9456607856944, -37.753415795767374 ] } },
{ "type": "Feature", "properties": { "gid": 203, "stop_id": "18561", "NAME": "41-Woodlands Ave/Melville Rd (Pascoe Vale South)", "latitude": -37.749512, "longitude": 144.946354, "ticketzone": "1", "routeussp": "58" }, "geometry": { "type": "Point", "coordinates": [ 144.946359906120222, -37.749498816185685 ] } },
{ "type": "Feature", "properties": { "gid": 204, "stop_id": "18562", "NAME": "42-Reynard St/Melville Rd (Pascoe Vale South)", "latitude": -37.746611, "longitude": 144.944334, "ticketzone": "1", "routeussp": "58" }, "geometry": { "type": "Point", "coordinates": [ 144.944339947230816, -37.746597845395939 ] } },
{ "type": "Feature", "properties": { "gid": 205, "stop_id": "18563", "NAME": "43-Princes Tce/Melville Rd (Pascoe Vale South)", "latitude": -37.744122, "longitude": 144.944767, "ticketzone": "1", "routeussp": "58" }, "geometry": { "type": "Point", "coordinates": [ 144.944773027591793, -37.744108805276568 ] } },
{ "type": "Feature", "properties": { "gid": 206, "stop_id": "18564", "NAME": "44-Brearley Pde/Melville Rd (Pascoe Vale South)", "latitude": -37.741966, "longitude": 144.945133, "ticketzone": "1", "routeussp": "58" }, "geometry": { "type": "Point", "coordinates": [ 144.945138787298561, -37.741952855913333 ] } },
{ "type": "Feature", "properties": { "gid": 207, "stop_id": "18566", "NAME": "51-Balwyn Rd/Doncaster Rd (Balwyn North)", "latitude": -37.794648, "longitude": 145.084631, "ticketzone": "1", "routeussp": "48" }, "geometry": { "type": "Point", "coordinates": [ 145.084636957301313, -37.794634815505169 ] } },
{ "type": "Feature", "properties": { "gid": 208, "stop_id": "18567", "NAME": "50-Dight Ave/Doncaster Rd (Balwyn North)", "latitude": -37.794372, "longitude": 145.080936, "ticketzone": "1", "routeussp": "48" }, "geometry": { "type": "Point", "coordinates": [ 145.08094191841883, -37.794358875238821 ] } },
{ "type": "Feature", "properties": { "gid": 209, "stop_id": "18568", "NAME": "49-Buchanan Ave/Doncaster Rd (Balwyn North)", "latitude": -37.793941, "longitude": 145.077722, "ticketzone": "1", "routeussp": "48" }, "geometry": { "type": "Point", "coordinates": [ 145.077727839355191, -37.793927865290129 ] } },
{ "type": "Feature", "properties": { "gid": 210, "stop_id": "18569", "NAME": "48-Osburn Ave/Doncaster Rd (Balwyn North)", "latitude": -37.793412, "longitude": 145.074567, "ticketzone": "1", "routeussp": "48" }, "geometry": { "type": "Point", "coordinates": [ 145.074572800016256, -37.79339884471927 ] } },
{ "type": "Feature", "properties": { "gid": 211, "stop_id": "18570", "NAME": "47-North Balwyn Shopping Centre/Doncaster Rd (Balwyn North)", "latitude": -37.792727, "longitude": 145.070724, "ticketzone": "1", "routeussp": "48" }, "geometry": { "type": "Point", "coordinates": [ 145.070729800391149, -37.792713854535101 ] } },
{ "type": "Feature", "properties": { "gid": 212, "stop_id": "18571", "NAME": "46-Wattle Ave/Doncaster Rd (Balwyn North)", "latitude": -37.793006, "longitude": 145.067401, "ticketzone": "1", "routeussp": "48" }, "geometry": { "type": "Point", "coordinates": [ 145.067407001174615, -37.792992854136067 ] } },
{ "type": "Feature", "properties": { "gid": 213, "stop_id": "18573", "NAME": "26-Ferrars St/Park St (South Melbourne)", "latitude": -37.836632, "longitude": 144.956405, "ticketzone": "1", "routeussp": "1" }, "geometry": { "type": "Point", "coordinates": [ 144.956411095468695, -37.836618817155191 ] } },
{ "type": "Feature", "properties": { "gid": 214, "stop_id": "18574", "NAME": "43-Kew High School/High St (Kew East)", "latitude": -37.7947, "longitude": 145.061349, "ticketzone": "1", "routeussp": "48" }, "geometry": { "type": "Point", "coordinates": [ 145.061355042235334, -37.794686833944098 ] } },
{ "type": "Feature", "properties": { "gid": 215, "stop_id": "18575", "NAME": "42-Woodlands Ave/High St (Kew East)", "latitude": -37.796324, "longitude": 145.057672, "ticketzone": "1", "routeussp": "48" }, "geometry": { "type": "Point", "coordinates": [ 145.057678002063739, -37.796310884096066 ] } },
{ "type": "Feature", "properties": { "gid": 216, "stop_id": "18576", "NAME": "41-Station St/High St (Kew East)", "latitude": -37.797966, "longitude": 145.053927, "ticketzone": "1", "routeussp": "48" }, "geometry": { "type": "Point", "coordinates": [ 145.053932922556925, -37.797952843269812 ] } },
{ "type": "Feature", "properties": { "gid": 217, "stop_id": "18577", "NAME": "40-Harp Village/High St (Kew East)", "latitude": -37.798721, "longitude": 145.052192, "ticketzone": "1", "routeussp": "48" }, "geometry": { "type": "Point", "coordinates": [ 145.052198083126882, -37.798707853546958 ] } },
{ "type": "Feature", "properties": { "gid": 218, "stop_id": "18578", "NAME": "39-Harp Rd/High St (Kew East)", "latitude": -37.799564, "longitude": 145.050273, "ticketzone": "1", "routeussp": "48" }, "geometry": { "type": "Point", "coordinates": [ 145.050278923448104, -37.799550883268665 ] } },
{ "type": "Feature", "properties": { "gid": 219, "stop_id": "18579", "NAME": "38-Victoria Park/High St (Kew East)", "latitude": -37.801316, "longitude": 145.046172, "ticketzone": "1", "routeussp": "48" }, "geometry": { "type": "Point", "coordinates": [ 145.04617780411732, -37.801302822996313 ] } },
{ "type": "Feature", "properties": { "gid": 220, "stop_id": "18580", "NAME": "37-Kew Cemetery/High St (Kew)", "latitude": -37.802582, "longitude": 145.042652, "ticketzone": "1", "routeussp": "48" }, "geometry": { "type": "Point", "coordinates": [ 145.042658083700871, -37.802568852450477 ] } },
{ "type": "Feature", "properties": { "gid": 221, "stop_id": "18581", "NAME": "36-Gladstone St/High St (Kew)", "latitude": -37.803539, "longitude": 145.040014, "ticketzone": "1", "routeussp": "48" }, "geometry": { "type": "Point", "coordinates": [ 145.040020003925008, -37.803525822409725 ] } },
{ "type": "Feature", "properties": { "gid": 222, "stop_id": "18582", "NAME": "35-Charles St/High St (Kew)", "latitude": -37.805012, "longitude": 145.035977, "ticketzone": "1", "routeussp": "48" }, "geometry": { "type": "Point", "coordinates": [ 145.035982964683882, -37.804998852606303 ] } },
{ "type": "Feature", "properties": { "gid": 223, "stop_id": "18583", "NAME": "34-Union St/High St (Kew)", "latitude": -37.80564, "longitude": 145.034166, "ticketzone": "1", "routeussp": "48" }, "geometry": { "type": "Point", "coordinates": [ 145.03417180480966, -37.805626872641547 ] } },
{ "type": "Feature", "properties": { "gid": 224, "stop_id": "18584", "NAME": "33-Kew Shopping Centre/High St (Kew)", "latitude": -37.806674, "longitude": 145.031311, "ticketzone": "1", "routeussp": "48" }, "geometry": { "type": "Point", "coordinates": [ 145.031317005807523, -37.806660881855272 ] } },
{ "type": "Feature", "properties": { "gid": 225, "stop_id": "18588", "NAME": "25-Brook St/Church St (Hawthorn)", "latitude": -37.815756, "longitude": 145.020982, "ticketzone": "1", "routeussp": "48" }, "geometry": { "type": "Point", "coordinates": [ 145.020987886945505, -37.815742871746913 ] } },
{ "type": "Feature", "properties": { "gid": 226, "stop_id": "18589", "NAME": "24-Hill St/Church St (Hawthorn)", "latitude": -37.817971, "longitude": 145.018753, "ticketzone": "1", "routeussp": "48" }, "geometry": { "type": "Point", "coordinates": [ 145.018758766893569, -37.817957860972115 ] } },
{ "type": "Feature", "properties": { "gid": 227, "stop_id": "18591", "NAME": "65-Victoria St/Church St (Richmond)", "latitude": -37.810726, "longitude": 145.000624, "ticketzone": "1", "routeussp": "78" }, "geometry": { "type": "Point", "coordinates": [ 145.000629890037914, -37.810712859567353 ] } },
{ "type": "Feature", "properties": { "gid": 228, "stop_id": "18592", "NAME": "64-Elizabeth St/Church St (Richmond)", "latitude": -37.812592, "longitude": 145.000165, "ticketzone": "1", "routeussp": "78" }, "geometry": { "type": "Point", "coordinates": [ 145.000170890789235, -37.81257883026489 ] } },
{ "type": "Feature", "properties": { "gid": 229, "stop_id": "18593", "NAME": "63-Tweedie Pl/Church St (Richmond)", "latitude": -37.814318, "longitude": 144.99988, "ticketzone": "1", "routeussp": "78" }, "geometry": { "type": "Point", "coordinates": [ 144.999885770370298, -37.814304849570966 ] } },
{ "type": "Feature", "properties": { "gid": 230, "stop_id": "18594", "NAME": "62-Highett St/Church St (Richmond)", "latitude": -37.815962, "longitude": 144.999574, "ticketzone": "1", "routeussp": "78" }, "geometry": { "type": "Point", "coordinates": [ 144.999579770098563, -37.81594888006353 ] } },
{ "type": "Feature", "properties": { "gid": 231, "stop_id": "18595", "NAME": "61-Bridge Rd/Church St (Richmond)", "latitude": -37.818729, "longitude": 144.999079, "ticketzone": "1", "routeussp": "78" }, "geometry": { "type": "Point", "coordinates": [ 144.999084769345387, -37.818715839698392 ] } },
{ "type": "Feature", "properties": { "gid": 232, "stop_id": "18596", "NAME": "60-Abinger St/Church St (Richmond)", "latitude": -37.820302, "longitude": 144.99881, "ticketzone": "1", "routeussp": "78" }, "geometry": { "type": "Point", "coordinates": [ 144.998815850158536, -37.820288860223712 ] } },
{ "type": "Feature", "properties": { "gid": 233, "stop_id": "18597", "NAME": "59-St Ignatius Church/Church St (Richmond)", "latitude": -37.821838, "longitude": 144.998541, "ticketzone": "1", "routeussp": "78" }, "geometry": { "type": "Point", "coordinates": [ 144.998546929568761, -37.821824800199053 ] } },
{ "type": "Feature", "properties": { "gid": 234, "stop_id": "18598", "NAME": "58-Gipps St/Church St (Richmond)", "latitude": -37.824058, "longitude": 144.998163, "ticketzone": "1", "routeussp": "78" }, "geometry": { "type": "Point", "coordinates": [ 144.998168929040247, -37.824044829821958 ] } },
{ "type": "Feature", "properties": { "gid": 235, "stop_id": "18599", "NAME": "57-Swan St/Church St (Richmond)", "latitude": -37.825782, "longitude": 144.997821, "ticketzone": "1", "routeussp": "78" }, "geometry": { "type": "Point", "coordinates": [ 144.997826928958375, -37.825768869975519 ] } },
{ "type": "Feature", "properties": { "gid": 236, "stop_id": "18601", "NAME": "55-Adelaide St/Church St (Cremorne)", "latitude": -37.828972, "longitude": 144.997269, "ticketzone": "1", "routeussp": "78" }, "geometry": { "type": "Point", "coordinates": [ 144.997275049521647, -37.828958829492379 ] } },
{ "type": "Feature", "properties": { "gid": 237, "stop_id": "18602", "NAME": "54-Cotter St/Church St (Cremorne)", "latitude": -37.830331, "longitude": 144.997187, "ticketzone": "1", "routeussp": "78" }, "geometry": { "type": "Point", "coordinates": [ 144.997192968486871, -37.830317829615815 ] } },
{ "type": "Feature", "properties": { "gid": 238, "stop_id": "18603", "NAME": "53-Howard St/Church St (Richmond)", "latitude": -37.832668, "longitude": 144.996794, "ticketzone": "1", "routeussp": "78" }, "geometry": { "type": "Point", "coordinates": [ 144.996799849040173, -37.832654860036783 ] } },
{ "type": "Feature", "properties": { "gid": 239, "stop_id": "18605", "NAME": "51-Malcolm St/Chapel St (South Yarra)", "latitude": -37.836364, "longitude": 144.996342, "ticketzone": "1", "routeussp": "78" }, "geometry": { "type": "Point", "coordinates": [ 144.996348048114299, -37.836350799836801 ] } },
{ "type": "Feature", "properties": { "gid": 240, "stop_id": "18606", "NAME": "50-Toorak Rd/Chapel St (South Yarra)", "latitude": -37.839648, "longitude": 144.995503, "ticketzone": "1", "routeussp": "78" }, "geometry": { "type": "Point", "coordinates": [ 144.995508888132122, -37.839634809712528 ] } },
{ "type": "Feature", "properties": { "gid": 241, "stop_id": "18607", "NAME": "49-Palermo St/Chapel St (South Yarra)", "latitude": -37.841572, "longitude": 144.99528, "ticketzone": "1", "routeussp": "78" }, "geometry": { "type": "Point", "coordinates": [ 144.995286047854052, -37.841558830157268 ] } },
{ "type": "Feature", "properties": { "gid": 242, "stop_id": "18608", "NAME": "48-Cliff St/Chapel St (South Yarra)", "latitude": -37.843833, "longitude": 144.994651, "ticketzone": "1", "routeussp": "78" }, "geometry": { "type": "Point", "coordinates": [ 144.9946567675116, -37.843819809812665 ] } },
{ "type": "Feature", "properties": { "gid": 243, "stop_id": "18609", "NAME": "47-Commercial Rd/Chapel St (Prahran)", "latitude": -37.846976, "longitude": 144.994032, "ticketzone": "1", "routeussp": "78" }, "geometry": { "type": "Point", "coordinates": [ 144.994037927246154, -37.846962879936079 ] } },
{ "type": "Feature", "properties": { "gid": 244, "stop_id": "18610", "NAME": "46-Chatham St/Chapel St (Prahran)", "latitude": -37.849106, "longitude": 144.993678, "ticketzone": "1", "routeussp": "78" }, "geometry": { "type": "Point", "coordinates": [ 144.993684047340224, -37.849092819812228 ] } },
{ "type": "Feature", "properties": { "gid": 245, "stop_id": "18611", "NAME": "45-High St/Chapel St (Prahran)", "latitude": -37.851956, "longitude": 144.993283, "ticketzone": "1", "routeussp": "78" }, "geometry": { "type": "Point", "coordinates": [ 144.993288766903675, -37.851942849912554 ] } },
{ "type": "Feature", "properties": { "gid": 246, "stop_id": "18612", "NAME": "44-Duke St/Chapel St (Windsor)", "latitude": -37.854102, "longitude": 144.992827, "ticketzone": "1", "routeussp": "78" }, "geometry": { "type": "Point", "coordinates": [ 144.992833007630054, -37.85408881009333 ] } },
{ "type": "Feature", "properties": { "gid": 247, "stop_id": "18613", "NAME": "43-Windsor Railway Station/Chapel St (Windsor)", "latitude": -37.85624, "longitude": 144.992451, "ticketzone": "1", "routeussp": "78" }, "geometry": { "type": "Point", "coordinates": [ 144.99245680725565, -37.856226850101201 ] } },
{ "type": "Feature", "properties": { "gid": 248, "stop_id": "18614", "NAME": "42-Dandenong Rd/Chapel St (St Kilda East)", "latitude": -37.857921, "longitude": 144.992155, "ticketzone": "1", "routeussp": "78" }, "geometry": { "type": "Point", "coordinates": [ 144.99216088636615, -37.857907869956243 ] } },
{ "type": "Feature", "properties": { "gid": 249, "stop_id": "18615", "NAME": "41-St Michaels Grammar School/Chapel St (St Kilda)", "latitude": -37.859529, "longitude": 144.991873, "ticketzone": "1", "routeussp": "78" }, "geometry": { "type": "Point", "coordinates": [ 144.991879006224792, -37.85951580976797 ] } },
{ "type": "Feature", "properties": { "gid": 250, "stop_id": "18616", "NAME": "40-Alma Rd/Chapel St (St Kilda East)", "latitude": -37.861577, "longitude": 144.99151, "ticketzone": "1", "routeussp": "78" }, "geometry": { "type": "Point", "coordinates": [ 144.991515766223387, -37.861563849508769 ] } },
{ "type": "Feature", "properties": { "gid": 251, "stop_id": "18617", "NAME": "39-Argyle St/Chapel St (St Kilda East)", "latitude": -37.863392, "longitude": 144.991188, "ticketzone": "1", "routeussp": "78" }, "geometry": { "type": "Point", "coordinates": [ 144.991193926341651, -37.8633788792526 ] } },
{ "type": "Feature", "properties": { "gid": 252, "stop_id": "18618", "NAME": "38-Inkerman St/Chapel St (St Kilda East)", "latitude": -37.86544, "longitude": 144.990791, "ticketzone": "1", "routeussp": "78" }, "geometry": { "type": "Point", "coordinates": [ 144.990796846215943, -37.865426829822781 ] } },
{ "type": "Feature", "properties": { "gid": 253, "stop_id": "18619", "NAME": "37-Chapel St/Carlisle St (Balaclava)", "latitude": -37.86825, "longitude": 144.990135, "ticketzone": "1", "routeussp": "3/3a,16" }, "geometry": { "type": "Point", "coordinates": [ 144.990140926003448, -37.868236809162745 ] } },
{ "type": "Feature", "properties": { "gid": 254, "stop_id": "18620", "NAME": "36-St Kilda Town Hall/Carlisle St (St Kilda)", "latitude": -37.86809, "longitude": 144.988685, "ticketzone": "1", "routeussp": "3/3a,16" }, "geometry": { "type": "Point", "coordinates": [ 144.988690846763717, -37.868076879316781 ] } },
{ "type": "Feature", "properties": { "gid": 255, "stop_id": "18621", "NAME": "37-Carlisle St/Chapel St (St Kilda)", "latitude": -37.868477, "longitude": 144.990231, "ticketzone": "1", "routeussp": "78" }, "geometry": { "type": "Point", "coordinates": [ 144.990237045926108, -37.868463879261967 ] } },
{ "type": "Feature", "properties": { "gid": 256, "stop_id": "18622", "NAME": "36-Brighton Rd/Chapel St (St Kilda)", "latitude": -37.871091, "longitude": 144.989774, "ticketzone": "1", "routeussp": "78" }, "geometry": { "type": "Point", "coordinates": [ 144.989779845582859, -37.871077839482865 ] } },
{ "type": "Feature", "properties": { "gid": 257, "stop_id": "18623", "NAME": "35-St Kilda Rd/Carlisle St (St Kilda)", "latitude": -37.867828, "longitude": 144.986566, "ticketzone": "1", "routeussp": "3/3a,67,16" }, "geometry": { "type": "Point", "coordinates": [ 144.986571886611273, -37.867814799195671 ] } },
{ "type": "Feature", "properties": { "gid": 258, "stop_id": "18624", "NAME": "34-Greeves St/Carlisle St (St Kilda)", "latitude": -37.867478, "longitude": 144.984006, "ticketzone": "1", "routeussp": "3/3a,16" }, "geometry": { "type": "Point", "coordinates": [ 144.984011926974347, -37.867464878741735 ] } },
{ "type": "Feature", "properties": { "gid": 259, "stop_id": "18625", "NAME": "33-Barkly St/Carlisle St (St Kilda)", "latitude": -37.867067, "longitude": 144.981085, "ticketzone": "1", "routeussp": "3/3a,16" }, "geometry": { "type": "Point", "coordinates": [ 144.981090887579654, -37.867053848930865 ] } },
{ "type": "Feature", "properties": { "gid": 260, "stop_id": "18632", "NAME": "38-Balaclava Station/Carlisle St (Balaclava)", "latitude": -37.868806, "longitude": 144.994235, "ticketzone": "1", "routeussp": "3/3a,16" }, "geometry": { "type": "Point", "coordinates": [ 144.994240964967361, -37.868792830259075 ] } },
{ "type": "Feature", "properties": { "gid": 261, "stop_id": "18633", "NAME": "39-Orange Gr/Carlisle St (Balaclava)", "latitude": -37.86907, "longitude": 144.996513, "ticketzone": "1", "routeussp": "3/3a,16" }, "geometry": { "type": "Point", "coordinates": [ 144.996519044627405, -37.869056799668002 ] } },
{ "type": "Feature", "properties": { "gid": 262, "stop_id": "18634", "NAME": "40-Hotham St/Carlisle St (Balaclava)", "latitude": -37.869433, "longitude": 144.999289, "ticketzone": "1", "routeussp": "3/3a,16" }, "geometry": { "type": "Point", "coordinates": [ 144.999295004728395, -37.869419860447067 ] } },
{ "type": "Feature", "properties": { "gid": 263, "stop_id": "18635", "NAME": "41-Empress Rd/Balaclava Rd (St Kilda East)", "latitude": -37.869706, "longitude": 145.001577, "ticketzone": "1", "routeussp": "3/3a,16" }, "geometry": { "type": "Point", "coordinates": [ 145.00158280357897, -37.869692830106558 ] } },
{ "type": "Feature", "properties": { "gid": 264, "stop_id": "18636", "NAME": "42-Sidwell Ave/Balaclava Rd (Caulfield North)", "latitude": -37.870166, "longitude": 145.005317, "ticketzone": "1", "routeussp": "3/3a,16" }, "geometry": { "type": "Point", "coordinates": [ 145.005322842831504, -37.870152820272153 ] } },
{ "type": "Feature", "properties": { "gid": 265, "stop_id": "18637", "NAME": "43-Orrong Rd/Balaclava Rd (Caulfield North)", "latitude": -37.870553, "longitude": 145.008466, "ticketzone": "1", "routeussp": "3/3a,16" }, "geometry": { "type": "Point", "coordinates": [ 145.00847176307164, -37.870539820505854 ] } },
{ "type": "Feature", "properties": { "gid": 266, "stop_id": "18638", "NAME": "44-Ontario St/Balaclava Rd (Caulfield North)", "latitude": -37.871069, "longitude": 145.012363, "ticketzone": "1", "routeussp": "3/3a,16" }, "geometry": { "type": "Point", "coordinates": [ 145.012368762415974, -37.871055881392159 ] } },
{ "type": "Feature", "properties": { "gid": 267, "stop_id": "18639", "NAME": "45-Lumeah Rd/Balaclava Rd (Caulfield North)", "latitude": -37.871344, "longitude": 145.014732, "ticketzone": "1", "routeussp": "3/3a,16" }, "geometry": { "type": "Point", "coordinates": [ 145.014737921335438, -37.871330831690948 ] } },
{ "type": "Feature", "properties": { "gid": 268, "stop_id": "18640", "NAME": "46-Kooyong Rd/Balaclava Rd (Caulfield North)", "latitude": -37.871726, "longitude": 145.017621, "ticketzone": "1", "routeussp": "3/3a,16" }, "geometry": { "type": "Point", "coordinates": [ 145.01762692114022, -37.871712881430426 ] } },
{ "type": "Feature", "properties": { "gid": 269, "stop_id": "18641", "NAME": "47-Elmhurst Rd/Balaclava Rd (Caulfield North)", "latitude": -37.872145, "longitude": 145.021099, "ticketzone": "1", "routeussp": "3/3a,16" }, "geometry": { "type": "Point", "coordinates": [ 145.021104880377038, -37.872131831363021 ] } },
{ "type": "Feature", "properties": { "gid": 270, "stop_id": "18645", "NAME": "51-Hawthorn Rd/Balaclava Rd (Caulfield North)", "latitude": -37.87257, "longitude": 145.02443, "ticketzone": "1", "routeussp": "3/3a,16" }, "geometry": { "type": "Point", "coordinates": [ 145.02443595993779, -37.872556811929314 ] } },
{ "type": "Feature", "properties": { "gid": 271, "stop_id": "18646", "NAME": "52-Caulfield Park Bowling Club/Balaclava Rd (Caulfield North)", "latitude": -37.873081, "longitude": 145.028544, "ticketzone": "1", "routeussp": "3/3a" }, "geometry": { "type": "Point", "coordinates": [ 145.028550038351483, -37.873067832291767 ] } },
{ "type": "Feature", "properties": { "gid": 272, "stop_id": "18647", "NAME": "53-Caulfield Park/Balaclava Rd (Caulfield North)", "latitude": -37.873396, "longitude": 145.031252, "ticketzone": "1", "routeussp": "3/3a" }, "geometry": { "type": "Point", "coordinates": [ 145.031257958004204, -37.873382832243564 ] } },
{ "type": "Feature", "properties": { "gid": 273, "stop_id": "18648", "NAME": "54-Kambrook Rd/Balaclava Rd (Caulfield North)", "latitude": -37.873959, "longitude": 145.035819, "ticketzone": "1", "routeussp": "3/3a" }, "geometry": { "type": "Point", "coordinates": [ 145.035824917096704, -37.873945872972868 ] } },
{ "type": "Feature", "properties": { "gid": 274, "stop_id": "18649", "NAME": "55-Normanby Rd/Balaclava Rd (Caulfield North)", "latitude": -37.874198, "longitude": 145.0377, "ticketzone": "1", "routeussp": "3/3a" }, "geometry": { "type": "Point", "coordinates": [ 145.037705917262514, -37.874184823024237 ] } },
{ "type": "Feature", "properties": { "gid": 275, "stop_id": "18650", "NAME": "56-Caulfield Racecourse/Normanby Rd (Caulfield North)", "latitude": -37.875416, "longitude": 145.039396, "ticketzone": "1", "routeussp": "3/3a" }, "geometry": { "type": "Point", "coordinates": [ 145.039401876695422, -37.875402883326203 ] } },
{ "type": "Feature", "properties": { "gid": 276, "stop_id": "18651", "NAME": "57-Caulfield Railway Station/Derby Rd (Caulfield East)", "latitude": -37.8764, "longitude": 145.041677, "ticketzone": "1", "routeussp": "3/3a" }, "geometry": { "type": "Point", "coordinates": [ 145.041682836203734, -37.876386853583959 ] } },
{ "type": "Feature", "properties": { "gid": 277, "stop_id": "18652", "NAME": "58-Dandenong Rd/Derby Rd (Caulfield North)", "latitude": -37.875709, "longitude": 145.041866, "ticketzone": "1", "routeussp": "3/3a" }, "geometry": { "type": "Point", "coordinates": [ 145.04187183613962, -37.875695833089544 ] } },
{ "type": "Feature", "properties": { "gid": 278, "stop_id": "18653", "NAME": "59-Dandenong Rd/Waverley Rd (Malvern East)", "latitude": -37.87576, "longitude": 145.044946, "ticketzone": "1", "routeussp": "3/3a" }, "geometry": { "type": "Point", "coordinates": [ 145.044951995858042, -37.875746863094662 ] } },
{ "type": "Feature", "properties": { "gid": 279, "stop_id": "18654", "NAME": "60-Burke Rd/Waverley Rd (Malvern East)", "latitude": -37.875893, "longitude": 145.048046, "ticketzone": "1", "routeussp": "3/3a" }, "geometry": { "type": "Point", "coordinates": [ 145.04805195460159, -37.875879883719143 ] } },
{ "type": "Feature", "properties": { "gid": 280, "stop_id": "18655", "NAME": "61-Tennyson St/Waverley Rd (Malvern East)", "latitude": -37.876247, "longitude": 145.050936, "ticketzone": "1", "routeussp": "3/3a" }, "geometry": { "type": "Point", "coordinates": [ 145.050942034506534, -37.8762338537787 ] } },
{ "type": "Feature", "properties": { "gid": 281, "stop_id": "18656", "NAME": "62-The Avenue/Waverley Rd (Malvern East)", "latitude": -37.876697, "longitude": 145.054687, "ticketzone": "1", "routeussp": "3/3a" }, "geometry": { "type": "Point", "coordinates": [ 145.054692873330225, -37.876683854049553 ] } },
{ "type": "Feature", "properties": { "gid": 282, "stop_id": "18657", "NAME": "63-Oak Gr/Waverley Rd (Malvern East)", "latitude": -37.876917, "longitude": 145.056546, "ticketzone": "1", "routeussp": "3/3a" }, "geometry": { "type": "Point", "coordinates": [ 145.05655191322569, -37.876903814352005 ] } },
{ "type": "Feature", "properties": { "gid": 283, "stop_id": "18658", "NAME": "27-Park St/Montague St (South Melbourne)", "latitude": -37.837522, "longitude": 144.954176, "ticketzone": "1", "routeussp": "1" }, "geometry": { "type": "Point", "coordinates": [ 144.954181975963962, -37.837508826651685 ] } },
{ "type": "Feature", "properties": { "gid": 284, "stop_id": "18659", "NAME": "28-Montague St/Bridport St (Albert Park)", "latitude": -37.840679, "longitude": 144.955384, "ticketzone": "1", "routeussp": "1" }, "geometry": { "type": "Point", "coordinates": [ 144.955389775514817, -37.840665846893323 ] } },
{ "type": "Feature", "properties": { "gid": 285, "stop_id": "18660", "NAME": "29-Bridport St/Victoria Ave (Albert Park)", "latitude": -37.841563, "longitude": 144.953337, "ticketzone": "1", "routeussp": "1" }, "geometry": { "type": "Point", "coordinates": [ 144.953342815334139, -37.841549826970507 ] } },
{ "type": "Feature", "properties": { "gid": 286, "stop_id": "18661", "NAME": "30-Richardson St/Victoria Ave (Albert Park)", "latitude": -37.843942, "longitude": 144.951283, "ticketzone": "1", "routeussp": "1" }, "geometry": { "type": "Point", "coordinates": [ 144.951289015263455, -37.843928797205777 ] } },
{ "type": "Feature", "properties": { "gid": 287, "stop_id": "18662", "NAME": "31-Graham St/Victoria Ave (Albert Park)", "latitude": -37.845674, "longitude": 144.949826, "ticketzone": "1", "routeussp": "1" }, "geometry": { "type": "Point", "coordinates": [ 144.949832095839781, -37.845660846759074 ] } },
{ "type": "Feature", "properties": { "gid": 288, "stop_id": "18663", "NAME": "32-Beaconsfield Pde/Victoria Ave (Albert Park)", "latitude": -37.847124, "longitude": 144.948729, "ticketzone": "1", "routeussp": "1" }, "geometry": { "type": "Point", "coordinates": [ 144.948734815542906, -37.847110836355384 ] } },
{ "type": "Feature", "properties": { "gid": 289, "stop_id": "18699", "NAME": "124-Walsh St/Toorak Rd (South Yarra)", "latitude": -37.83819, "longitude": 144.984565, "ticketzone": "1", "routeussp": "58" }, "geometry": { "type": "Point", "coordinates": [ 144.984571010035495, -37.838176808778961 ] } },
{ "type": "Feature", "properties": { "gid": 290, "stop_id": "18700", "NAME": "125-Punt Rd/Toorak Rd (South Yarra)", "latitude": -37.838417, "longitude": 144.986741, "ticketzone": "1", "routeussp": "58" }, "geometry": { "type": "Point", "coordinates": [ 144.986746850055795, -37.838403878923792 ] } },
{ "type": "Feature", "properties": { "gid": 291, "stop_id": "18702", "NAME": "126-Myrtle St/Toorak Rd (South Yarra)", "latitude": -37.838788, "longitude": 144.989504, "ticketzone": "1", "routeussp": "58" }, "geometry": { "type": "Point", "coordinates": [ 144.989509849131878, -37.838774859354025 ] } },
{ "type": "Feature", "properties": { "gid": 292, "stop_id": "18703", "NAME": "127-South Yarra Railway Station/Toorak Rd (South Yarra)", "latitude": -37.839131, "longitude": 144.992165, "ticketzone": "1", "routeussp": "58" }, "geometry": { "type": "Point", "coordinates": [ 144.992170968459618, -37.839117849499999 ] } },
{ "type": "Feature", "properties": { "gid": 293, "stop_id": "18704", "NAME": "128-Chapel St/Toorak Rd (South Yarra)", "latitude": -37.839581, "longitude": 144.995823, "ticketzone": "1", "routeussp": "58" }, "geometry": { "type": "Point", "coordinates": [ 144.995828927992733, -37.83956784943036 ] } },
{ "type": "Feature", "properties": { "gid": 294, "stop_id": "18705", "NAME": "129-Tivoli Rd/Toorak Rd (South Yarra)", "latitude": -37.839927, "longitude": 144.998666, "ticketzone": "1", "routeussp": "58" }, "geometry": { "type": "Point", "coordinates": [ 144.998671847409781, -37.839913809955434 ] } },
{ "type": "Feature", "properties": { "gid": 295, "stop_id": "18706", "NAME": "130-Hawksburn Rd/Toorak Rd (South Yarra)", "latitude": -37.840368, "longitude": 145.002336, "ticketzone": "1", "routeussp": "58" }, "geometry": { "type": "Point", "coordinates": [ 145.002342047311231, -37.840354810485906 ] } },
{ "type": "Feature", "properties": { "gid": 296, "stop_id": "18707", "NAME": "131-Williams Rd/Toorak Rd (Toorak)", "latitude": -37.840725, "longitude": 145.00536, "ticketzone": "1", "routeussp": "58" }, "geometry": { "type": "Point", "coordinates": [ 145.005366046405157, -37.840711840484765 ] } },
{ "type": "Feature", "properties": { "gid": 297, "stop_id": "18708", "NAME": "132-Toorak Village/Toorak Rd (Toorak)", "latitude": -37.841093, "longitude": 145.008452, "ticketzone": "1", "routeussp": "58" }, "geometry": { "type": "Point", "coordinates": [ 145.008458085476832, -37.841079850983299 ] } },
{ "type": "Feature", "properties": { "gid": 298, "stop_id": "18709", "NAME": "133-Canterbury Rd/Toorak Rd (Toorak)", "latitude": -37.841387, "longitude": 145.010888, "ticketzone": "1", "routeussp": "58" }, "geometry": { "type": "Point", "coordinates": [ 145.010893845882237, -37.841373880543713 ] } },
{ "type": "Feature", "properties": { "gid": 299, "stop_id": "18710", "NAME": "43-Deepdene Shopping Centre/Whitehorse Rd (Balwyn)", "latitude": -37.810925, "longitude": 145.064877, "ticketzone": "1", "routeussp": "109" }, "geometry": { "type": "Point", "coordinates": [ 145.06488303939156, -37.810911854787292 ] } },
{ "type": "Feature", "properties": { "gid": 300, "stop_id": "18711", "NAME": "119-Park St/Lygon St (Carlton North)", "latitude": -37.779417, "longitude": 144.970471, "ticketzone": "1", "routeussp": "6,1" }, "geometry": { "type": "Point", "coordinates": [ 144.970477019578652, -37.779403837632238 ] } },
{ "type": "Feature", "properties": { "gid": 301, "stop_id": "18712", "NAME": "120-Brunswick Rd/Lygon St (Brunswick)", "latitude": -37.778455, "longitude": 144.970634, "ticketzone": "1", "routeussp": "6,1" }, "geometry": { "type": "Point", "coordinates": [ 144.970640099224738, -37.778441828050219 ] } },
{ "type": "Feature", "properties": { "gid": 302, "stop_id": "18713", "NAME": "121-Weston St/Lygon St (Brunswick East)", "latitude": -37.775667, "longitude": 144.970971, "ticketzone": "1", "routeussp": "6,1" }, "geometry": { "type": "Point", "coordinates": [ 144.970977058878276, -37.775653807814699 ] } },
{ "type": "Feature", "properties": { "gid": 303, "stop_id": "18714", "NAME": "122-Glenlyon Rd/Lygon St (Brunswick East)", "latitude": -37.772737, "longitude": 144.971415, "ticketzone": "1", "routeussp": "6,1" }, "geometry": { "type": "Point", "coordinates": [ 144.971420939423524, -37.772723857870282 ] } },
{ "type": "Feature", "properties": { "gid": 304, "stop_id": "18715", "NAME": "123-Albert St/Lygon St (Brunswick East)", "latitude": -37.769781, "longitude": 144.97195, "ticketzone": "1", "routeussp": "6,1" }, "geometry": { "type": "Point", "coordinates": [ 144.97195589991864, -37.769767808060692 ] } },
{ "type": "Feature", "properties": { "gid": 305, "stop_id": "18716", "NAME": "124-Victoria St/Lygon St (Brunswick East)", "latitude": -37.7682, "longitude": 144.972231, "ticketzone": "1", "routeussp": "6,1" }, "geometry": { "type": "Point", "coordinates": [ 144.972237060218987, -37.768186868103832 ] } },
{ "type": "Feature", "properties": { "gid": 306, "stop_id": "18717", "NAME": "125-Blyth St/Lygon St (Brunswick East)", "latitude": -37.766664, "longitude": 144.972512, "ticketzone": "1", "routeussp": "6,1" }, "geometry": { "type": "Point", "coordinates": [ 144.972517859864695, -37.766650837834504 ] } },
{ "type": "Feature", "properties": { "gid": 307, "stop_id": "18718", "NAME": "126-Stewart St/Lygon St (Brunswick East)", "latitude": -37.764427, "longitude": 144.972902, "ticketzone": "1", "routeussp": "6,1" }, "geometry": { "type": "Point", "coordinates": [ 144.972908100432505, -37.76441379734343 ] } },
{ "type": "Feature", "properties": { "gid": 308, "stop_id": "18719", "NAME": "127-Albion St/Lygon St (Brunswick East)", "latitude": -37.762369, "longitude": 144.973265, "ticketzone": "1", "routeussp": "6,1" }, "geometry": { "type": "Point", "coordinates": [ 144.97327098061038, -37.76235585742608 ] } },
{ "type": "Feature", "properties": { "gid": 309, "stop_id": "18720", "NAME": "128-Mitchell St/Holmes St (Brunswick East)", "latitude": -37.759387, "longitude": 144.974334, "ticketzone": "1", "routeussp": "6,1" }, "geometry": { "type": "Point", "coordinates": [ 144.974339820944436, -37.759373797998144 ] } },
{ "type": "Feature", "properties": { "gid": 310, "stop_id": "18721", "NAME": "129-Moreland Rd/Holmes St (Brunswick)", "latitude": -37.75688, "longitude": 144.974754, "ticketzone": "1", "routeussp": "6,1" }, "geometry": { "type": "Point", "coordinates": [ 144.974759941344303, -37.756866848304817 ] } },
{ "type": "Feature", "properties": { "gid": 311, "stop_id": "18722", "NAME": "130-Barrow St/Moreland Rd (Coburg)", "latitude": -37.756206, "longitude": 144.970153, "ticketzone": "1", "routeussp": "6" }, "geometry": { "type": "Point", "coordinates": [ 144.970158781166703, -37.756192837147104 ] } },
{ "type": "Feature", "properties": { "gid": 312, "stop_id": "18723", "NAME": "131-De Carle St/Moreland Rd (Coburg)", "latitude": -37.75581, "longitude": 144.96652, "ticketzone": "1", "routeussp": "6" }, "geometry": { "type": "Point", "coordinates": [ 144.966526022132825, -37.755796837706434 ] } },
{ "type": "Feature", "properties": { "gid": 313, "stop_id": "18724", "NAME": "132-Sydney Rd/Moreland Rd (Coburg)", "latitude": -37.755564, "longitude": 144.964279, "ticketzone": "1", "routeussp": "6" }, "geometry": { "type": "Point", "coordinates": [ 144.964285023310993, -37.755550867031296 ] } },
{ "type": "Feature", "properties": { "gid": 314, "stop_id": "18725", "NAME": "133-Moreland Station/Moreland Rd (Coburg)", "latitude": -37.75526, "longitude": 144.962381, "ticketzone": "1", "routeussp": "6" }, "geometry": { "type": "Point", "coordinates": [ 144.962387103311414, -37.755246847277945 ] } },
{ "type": "Feature", "properties": { "gid": 315, "stop_id": "18726", "NAME": "130-The Avenue/Nicholson St (Coburg)", "latitude": -37.753566, "longitude": 144.975945, "ticketzone": "1", "routeussp": "1" }, "geometry": { "type": "Point", "coordinates": [ 144.975950820524986, -37.753552868055081 ] } },
{ "type": "Feature", "properties": { "gid": 316, "stop_id": "10311", "NAME": "45-Glenferrie Rd/Wattletree Rd (Malvern)", "latitude": -37.862455, "longitude": 145.028508, "ticketzone": "1", "routeussp": "5" }, "geometry": { "type": "Point", "coordinates": [ 145.028514040071656, -37.862441801894974 ] } },
{ "type": "Feature", "properties": { "gid": 317, "stop_id": "10371", "NAME": "44-Duncraig Ave/Wattletree Rd (Armadale)", "latitude": -37.862069, "longitude": 145.025382, "ticketzone": "1", "routeussp": "5" }, "geometry": { "type": "Point", "coordinates": [ 145.025387800064181, -37.862055882406501 ] } },
{ "type": "Feature", "properties": { "gid": 318, "stop_id": "1083", "NAME": "42-Clyde St/Raleigh Rd (Maribyrnong)", "latitude": -37.769699, "longitude": 144.898841, "ticketzone": "1", "routeussp": "82,57" }, "geometry": { "type": "Point", "coordinates": [ 144.898847112944225, -37.769685812976 ] } },
{ "type": "Feature", "properties": { "gid": 319, "stop_id": "11285", "NAME": "43-Egerton Rd/Wattletree Rd (Armadale)", "latitude": -37.86171, "longitude": 145.022754, "ticketzone": "1", "routeussp": "5" }, "geometry": { "type": "Point", "coordinates": [ 145.022759801538172, -37.861696871708112 ] } },
{ "type": "Feature", "properties": { "gid": 320, "stop_id": "1185", "NAME": "50-Vincent St/Wattletree Rd (Malvern East)", "latitude": -37.864226, "longitude": 145.043375, "ticketzone": "1", "routeussp": "5" }, "geometry": { "type": "Point", "coordinates": [ 145.043380957430458, -37.864212823435082 ] } },
{ "type": "Feature", "properties": { "gid": 321, "stop_id": "12599", "NAME": "42-Kooyong Rd/Wattletree Rd (Armadale)", "latitude": -37.861346, "longitude": 145.019899, "ticketzone": "1", "routeussp": "5" }, "geometry": { "type": "Point", "coordinates": [ 145.019905001328539, -37.861332821859655 ] } },
{ "type": "Feature", "properties": { "gid": 322, "stop_id": "1291", "NAME": "51-Erica Ave/Wattletree Rd (Malvern East)", "latitude": -37.864613, "longitude": 145.046571, "ticketzone": "1", "routeussp": "5" }, "geometry": { "type": "Point", "coordinates": [ 145.046577036209754, -37.864599823834887 ] } },
{ "type": "Feature", "properties": { "gid": 323, "stop_id": "1292", "NAME": "38-Renown St/Sydney Rd (Coburg)", "latitude": -37.731619, "longitude": 144.964266, "ticketzone": "1", "routeussp": "19" }, "geometry": { "type": "Point", "coordinates": [ 144.964272065021618, -37.73160582709054 ] } },
{ "type": "Feature", "properties": { "gid": 324, "stop_id": "13401", "NAME": "28-Punt Rd/High St (Prahran)", "latitude": -37.850564, "longitude": 144.984047, "ticketzone": "1", "routeussp": "6" }, "geometry": { "type": "Point", "coordinates": [ 144.984052969008758, -37.850550819046639 ] } },
{ "type": "Feature", "properties": { "gid": 325, "stop_id": "13995", "NAME": "44-Barb St/Raleigh Rd (Maribyrnong)", "latitude": -37.768891, "longitude": 144.891985, "ticketzone": "1", "routeussp": "82,57" }, "geometry": { "type": "Point", "coordinates": [ 144.891990914060642, -37.768877792620628 ] } },
{ "type": "Feature", "properties": { "gid": 326, "stop_id": "14033", "NAME": "29-Perth St/High St (Prahran)", "latitude": -37.85105, "longitude": 144.987727, "ticketzone": "1", "routeussp": "6" }, "geometry": { "type": "Point", "coordinates": [ 144.987732888209109, -37.851036819428323 ] } },
{ "type": "Feature", "properties": { "gid": 327, "stop_id": "14614", "NAME": "30-Prahran Station/High St (Prahran)", "latitude": -37.851319, "longitude": 144.989731, "ticketzone": "1", "routeussp": "6" }, "geometry": { "type": "Point", "coordinates": [ 144.989737008506125, -37.851305829590814 ] } },