{
"type": "FeatureCollection",
"name": "ptv_regional_train_station",
"crs": { "type": "name", "properties": { "name": "urn:ogc:def:crs:OGC:1.3:CRS84" } },
"features": [
{ "type": "Feature", "properties": { "gid": 1, "stop_id": "17204", "NAME": "Wallan Railway Station (Wallan)", "latitude": -37.416861, "longitude": 145.005372 }, "geometry": { "type": "Point", "coordinates": [ 145.005377972779655, -37.416847837974778 ] } },
{ "type": "Feature", "properties": { "gid": 2, "stop_id": "19980", "NAME": "Melton Railway Station (Melton South)", "latitude": -37.703359, "longitude": 144.572216 }, "geometry": { "type": "Point", "coordinates": [ 144.572222056425176, -37.703345800114072 ] } },
{ "type": "Feature", "properties": { "gid": 3, "stop_id": "19981", "NAME": "Rockbank Railway Station (Rockbank)", "latitude": -37.729261, "longitude": 144.650631 }, "geometry": { "type": "Point", "coordinates": [ 144.650636879936883, -37.729247805508649 ] } },
{ "type": "Feature", "properties": { "gid": 4, "stop_id": "19982", "NAME": "Deer Park Railway Station (Deer Park)", "latitude": -37.777764, "longitude": 144.772304 }, "geometry": { "type": "Point", "coordinates": [ 144.772310013995451, -37.777750794182232 ] } },
{ "type": "Feature", "properties": { "gid": 5, "stop_id": "19998", "NAME": "Sunbury Railway Station (Sunbury)", "latitude": -37.579206, "longitude": 144.728165 }, "geometry": { "type": "Point", "coordinates": [ 144.728171161948069, -37.57919279033716 ] } },
{ "type": "Feature", "properties": { "gid": 6, "stop_id": "20020", "NAME": "Ardeer Railway Station (Ardeer)", "latitude": -37.783065, "longitude": 144.802188 }, "geometry": { "type": "Point", "coordinates": [ 144.802193967745524, -37.783051795857475 ] } },
{ "type": "Feature", "properties": { "gid": 7, "stop_id": "20029", "NAME": "Craigieburn Railway Station (Craigieburn)", "latitude": -37.601925, "longitude": 144.943306 }, "geometry": { "type": "Point", "coordinates": [ 144.943311802778055, -37.601911864894035 ] } },
{ "type": "Feature", "properties": { "gid": 8, "stop_id": "20043", "NAME": "Southern Cross Railway Station (Melbourne City)", "latitude": -37.818334, "longitude": 144.952525 }, "geometry": { "type": "Point", "coordinates": [ 144.952531018426924, -37.818320826823715 ] } },
{ "type": "Feature", "properties": { "gid": 9, "stop_id": "20298", "NAME": "Broadford Railway Station (Broadford)", "latitude": -37.2072, "longitude": 145.043008 }, "geometry": { "type": "Point", "coordinates": [ 145.043013828475893, -37.207186808855859 ] } },
{ "type": "Feature", "properties": { "gid": 10, "stop_id": "20299", "NAME": "Bunyip Railway Station (Bunyip)", "latitude": -38.099108, "longitude": 145.720757 }, "geometry": { "type": "Point", "coordinates": [ 145.720762932568846, -38.099094872471454 ] } },
{ "type": "Feature", "properties": { "gid": 11, "stop_id": "20307", "NAME": "Donnybrook Railway Station (Donnybrook)", "latitude": -37.542575, "longitude": 144.969555 }, "geometry": { "type": "Point", "coordinates": [ 144.969560844876554, -37.542561815740115 ] } },
{ "type": "Feature", "properties": { "gid": 12, "stop_id": "20313", "NAME": "Garfield Railway Station (Garfield)", "latitude": -38.091031, "longitude": 145.674225 }, "geometry": { "type": "Point", "coordinates": [ 145.674230781829408, -38.091017908383925 ] } },
{ "type": "Feature", "properties": { "gid": 13, "stop_id": "20316", "NAME": "Heathcote Junction Railway Station (Heathcote Junction)", "latitude": -37.371713, "longitude": 145.028205 }, "geometry": { "type": "Point", "coordinates": [ 145.02821097274429, -37.371699878809459 ] } },
{ "type": "Feature", "properties": { "gid": 14, "stop_id": "20319", "NAME": "Kilmore East Railway Station (Kilmore East)", "latitude": -37.29321, "longitude": 144.983566 }, "geometry": { "type": "Point", "coordinates": [ 144.983572069461104, -37.293196835372093 ] } },
{ "type": "Feature", "properties": { "gid": 15, "stop_id": "20323", "NAME": "Little River Railway Station (Little River)", "latitude": -37.962929, "longitude": 144.498485 }, "geometry": { "type": "Point", "coordinates": [ 144.49849116156642, -37.962915786770935 ] } },
{ "type": "Feature", "properties": { "gid": 16, "stop_id": "20333", "NAME": "Nar Nar Goon Railway Station (Nar Nar Goon)", "latitude": -38.081592, "longitude": 145.571666 }, "geometry": { "type": "Point", "coordinates": [ 145.57167184068345, -38.081578881215819 ] } },
{ "type": "Feature", "properties": { "gid": 17, "stop_id": "20342", "NAME": "Seymour Railway Station (Seymour)", "latitude": -37.024729, "longitude": 145.137729 }, "geometry": { "type": "Point", "coordinates": [ 145.137734871858612, -37.024715864350462 ] } },
{ "type": "Feature", "properties": { "gid": 18, "stop_id": "20348", "NAME": "Tallarook Railway Station (Tallarook)", "latitude": -37.092335, "longitude": 145.102997 }, "geometry": { "type": "Point", "coordinates": [ 145.103003150257905, -37.092321882871367 ] } },
{ "type": "Feature", "properties": { "gid": 19, "stop_id": "20352", "NAME": "Tynong Railway Station (Tynong)", "latitude": -38.084996, "longitude": 145.628234 }, "geometry": { "type": "Point", "coordinates": [ 145.628239710725325, -38.084982865520537 ] } },
{ "type": "Feature", "properties": { "gid": 20, "stop_id": "20355", "NAME": "Wandong Railway Station (Wandong)", "latitude": -37.354677, "longitude": 145.026415 }, "geometry": { "type": "Point", "coordinates": [ 145.026421055512316, -37.354663868700648 ] } },
{ "type": "Feature", "properties": { "gid": 21, "stop_id": "22238", "NAME": "Flinders Street Railway Station (Melbourne City)", "latitude": -37.818305, "longitude": 144.966964 }, "geometry": { "type": "Point", "coordinates": [ 144.966969895896682, -37.818291847647615 ] } },
{ "type": "Feature", "properties": { "gid": 22, "stop_id": "22239", "NAME": "North Melbourne Railway Station (West Melbourne)", "latitude": -37.80631, "longitude": 144.94151 }, "geometry": { "type": "Point", "coordinates": [ 144.941516101197521, -37.806296826314572 ] } },
{ "type": "Feature", "properties": { "gid": 23, "stop_id": "22240", "NAME": "Footscray Railway Station (Footscray)", "latitude": -37.801413, "longitude": 144.90202 }, "geometry": { "type": "Point", "coordinates": [ 144.902025908326976, -37.801399833514608 ] } },
{ "type": "Feature", "properties": { "gid": 24, "stop_id": "22241", "NAME": "Sunshine Railway Station (Sunshine)", "latitude": -37.788536, "longitude": 144.832878 }, "geometry": { "type": "Point", "coordinates": [ 144.832883962201805, -37.788522808104084 ] } },
{ "type": "Feature", "properties": { "gid": 25, "stop_id": "22244", "NAME": "Watergardens Railway Station (Sydenham)", "latitude": -37.701129, "longitude": 144.77418 }, "geometry": { "type": "Point", "coordinates": [ 144.774185981843175, -37.701115793791246 ] } },
{ "type": "Feature", "properties": { "gid": 26, "stop_id": "22247", "NAME": "Richmond Railway Station (Richmond)", "latitude": -37.824074, "longitude": 144.990164 }, "geometry": { "type": "Point", "coordinates": [ 144.990170090438511, -37.824060849355703 ] } },
{ "type": "Feature", "properties": { "gid": 27, "stop_id": "22248", "NAME": "Caulfield Railway Station (Caulfield East)", "latitude": -37.877459, "longitude": 145.042525 }, "geometry": { "type": "Point", "coordinates": [ 145.042530996234092, -37.877445883670738 ] } },
{ "type": "Feature", "properties": { "gid": 28, "stop_id": "22249", "NAME": "Clayton Railway Station (Clayton)", "latitude": -37.924683, "longitude": 145.120534 }, "geometry": { "type": "Point", "coordinates": [ 145.120539737153564, -37.924669879004284 ] } },
{ "type": "Feature", "properties": { "gid": 29, "stop_id": "22250", "NAME": "Dandenong Railway Station (Dandenong)", "latitude": -37.989968, "longitude": 145.209725 }, "geometry": { "type": "Point", "coordinates": [ 145.209730794864299, -37.989954895649113 ] } },
{ "type": "Feature", "properties": { "gid": 30, "stop_id": "22251", "NAME": "Berwick Railway Station (Berwick)", "latitude": -38.040408, "longitude": 145.345715 }, "geometry": { "type": "Point", "coordinates": [ 145.345720765454445, -38.040394865451141 ] } },
{ "type": "Feature", "properties": { "gid": 31, "stop_id": "22252", "NAME": "Pakenham Railway Station (Pakenham)", "latitude": -38.080614, "longitude": 145.486368 }, "geometry": { "type": "Point", "coordinates": [ 145.486373815918455, -38.080600845290114 ] } },
{ "type": "Feature", "properties": { "gid": 32, "stop_id": "22253", "NAME": "Essendon Railway Station (Essendon)", "latitude": -37.756012, "longitude": 144.916198 }, "geometry": { "type": "Point", "coordinates": [ 144.916203791197063, -37.755998793507239 ] } },
{ "type": "Feature", "properties": { "gid": 33, "stop_id": "22254", "NAME": "Broadmeadows Railway Station (Broadmeadows)", "latitude": -37.683049, "longitude": 144.919613 }, "geometry": { "type": "Point", "coordinates": [ 144.919619118373276, -37.683035793909077 ] } },
{ "type": "Feature", "properties": { "gid": 34, "stop_id": "47647", "NAME": "Wyndham Vale Railway Station (Manor Lakes)", "latitude": -37.872886, "longitude": 144.608732 }, "geometry": { "type": "Point", "coordinates": [ 144.608737911513629, -37.872872774035763 ] } },
{ "type": "Feature", "properties": { "gid": 35, "stop_id": "47648", "NAME": "Tarneit Railway Station (Tarneit)", "latitude": -37.832168, "longitude": 144.694714 }, "geometry": { "type": "Point", "coordinates": [ 144.694719940803481, -37.832154799069677 ] } },
{ "type": "Feature", "properties": { "gid": 36, "stop_id": "48804", "NAME": "Cobblebank Railway Station (Cobblebank)", "latitude": -37.712546, "longitude": 144.604108 }, "geometry": { "type": "Point", "coordinates": [ 144.604114089581998, -37.712532822211713 ] } },
{ "type": "Feature", "properties": { "gid": 37, "stop_id": "52011", "NAME": "Caroline Springs Railway Station (Ravenhall)", "latitude": -37.766145, "longitude": 144.735748 }, "geometry": { "type": "Point", "coordinates": [ 144.735753821000515, -37.766131791842234 ] } }
]
}
